{"type":"FeatureCollection","name":"courses","xy_coordinate_resolution":1e-05,"features":[{"type":"Feature","properties":{"name":"Skibbereen & West Carbery Golf Club","osm_id":"5900844","county":"Cork County","county_id":"IE_CORK_COUNTY","jurisdiction":"ROI","pop_2022":360152},"geometry":{"type":"Point","coordinates":[-9.29219,51.53204]}},{"type":"Feature","properties":{"name":"Pitch and Putt","osm_id":"42820955","county":"Cork County","county_id":"IE_CORK_COUNTY","jurisdiction":"ROI","pop_2022":360152},"geometry":{"type":"Point","coordinates":[-9.01796,51.56703]}},{"type":"Feature","properties":{"name":"Smuggler's Cove Adventure Golf","osm_id":"1460587988","county":"Cork County","county_id":"IE_CORK_COUNTY","jurisdiction":"ROI","pop_2022":360152},"geometry":{"type":"Point","coordinates":[-9.04569,51.57592]}},{"type":"Feature","properties":{"name":"Dunmore Golf Club","osm_id":"640269919","county":"Cork County","county_id":"IE_CORK_COUNTY","jurisdiction":"ROI","pop_2022":360152},"geometry":{"type":"Point","coordinates":[-8.8708,51.59069]}},{"type":"Feature","properties":{"name":"Clonakilty Golf Club","osm_id":"675140315","county":"Cork County","county_id":"IE_CORK_COUNTY","jurisdiction":"ROI","pop_2022":360152},"geometry":{"type":"Point","coordinates":[-8.8453,51.65607]}},{"type":"Feature","properties":{"name":"Drimoleague Pitch & Putt Club","osm_id":"695642483","county":"Cork County","county_id":"IE_CORK_COUNTY","jurisdiction":"ROI","pop_2022":360152},"geometry":{"type":"Point","coordinates":[-9.26776,51.6596]}},{"type":"Feature","properties":{"name":"Berehaven Golf Club","osm_id":"470258422","county":"Cork County","county_id":"IE_CORK_COUNTY","jurisdiction":"ROI","pop_2022":360152},"geometry":{"type":"Point","coordinates":[-9.86121,51.65693]}},{"type":"Feature","properties":{"name":"Bantry Bay Golf Club","osm_id":"5972483","county":"Cork County","county_id":"IE_CORK_COUNTY","jurisdiction":"ROI","pop_2022":360152},"geometry":{"type":"Point","coordinates":[-9.44975,51.69894]}},{"type":"Feature","properties":{"name":"Dunmanway Pitch & Putt","osm_id":"294776881","county":"Cork County","county_id":"IE_CORK_COUNTY","jurisdiction":"ROI","pop_2022":360152},"geometry":{"type":"Point","coordinates":[-9.11879,51.71454]}},{"type":"Feature","properties":{"name":"Ballineen Pitch & Putt Club","osm_id":"639415945","county":"Cork County","county_id":"IE_CORK_COUNTY","jurisdiction":"ROI","pop_2022":360152},"geometry":{"type":"Point","coordinates":[-8.94353,51.73543]}},{"type":"Feature","properties":{"name":"Glengarriff Golf Club","osm_id":"177639119","county":"Cork County","county_id":"IE_CORK_COUNTY","jurisdiction":"ROI","pop_2022":360152},"geometry":{"type":"Point","coordinates":[-9.52232,51.74875]}},{"type":"Feature","properties":{"name":"Newcestown Pitch & Putt Club","osm_id":"945280090","county":"Cork County","county_id":"IE_CORK_COUNTY","jurisdiction":"ROI","pop_2022":360152},"geometry":{"type":"Point","coordinates":[-8.86378,51.78095]}},{"type":"Feature","properties":{"name":"Parknasilla Golf Course","osm_id":"187973749","county":"Kerry","county_id":"IE_KERRY","jurisdiction":"ROI","pop_2022":156458},"geometry":{"type":"Point","coordinates":[-9.86561,51.81686]}},{"type":"Feature","properties":{"name":"Hogs Head Golf Course","osm_id":"6256249","county":"Kerry","county_id":"IE_KERRY","jurisdiction":"ROI","pop_2022":156458},"geometry":{"type":"Point","coordinates":[-10.16415,51.81419]}},{"type":"Feature","properties":{"name":"Waterville Golf Links","osm_id":"135746746","county":"Kerry","county_id":"IE_KERRY","jurisdiction":"ROI","pop_2022":156458},"geometry":{"type":"Point","coordinates":[-10.19868,51.84293]}},{"type":"Feature","properties":{"name":"Kilmichael Pitch & Putt","osm_id":"701079096","county":"Cork County","county_id":"IE_CORK_COUNTY","jurisdiction":"ROI","pop_2022":360152},"geometry":{"type":"Point","coordinates":[-8.98947,51.87541]}},{"type":"Feature","properties":{"name":"Ring of Kerry Golf Course","osm_id":"463882987","county":"Kerry","county_id":"IE_KERRY","jurisdiction":"ROI","pop_2022":156458},"geometry":{"type":"Point","coordinates":[-9.67294,51.87565]}},{"type":"Feature","properties":{"name":"Kenmare Golf Club","osm_id":"14401493","county":"Kerry","county_id":"IE_KERRY","jurisdiction":"ROI","pop_2022":156458},"geometry":{"type":"Point","coordinates":[-9.57461,51.88353]}},{"type":"Feature","properties":{"name":"Macroom Golf Course","osm_id":"398396868","county":"Cork County","county_id":"IE_CORK_COUNTY","jurisdiction":"ROI","pop_2022":360152},"geometry":{"type":"Point","coordinates":[-8.97385,51.90149]}},{"type":"Feature","properties":{"name":"Ross Golf Course","osm_id":"217936677","county":"Kerry","county_id":"IE_KERRY","jurisdiction":"ROI","pop_2022":156458},"geometry":{"type":"Point","coordinates":[-9.51736,52.04685]}},{"type":"Feature","properties":{"name":"Deer Park Pitch & Putt Club","osm_id":"217748556","county":"Kerry","county_id":"IE_KERRY","jurisdiction":"ROI","pop_2022":156458},"geometry":{"type":"Point","coordinates":[-9.50154,52.06564]}},{"type":"Feature","properties":{"name":"Lackabane Course","osm_id":"217849542","county":"Kerry","county_id":"IE_KERRY","jurisdiction":"ROI","pop_2022":156458},"geometry":{"type":"Point","coordinates":[-9.5508,52.07069]}},{"type":"Feature","properties":{"name":"Beaufort Golf Club","osm_id":"216934452","county":"Kerry","county_id":"IE_KERRY","jurisdiction":"ROI","pop_2022":156458},"geometry":{"type":"Point","coordinates":[-9.67445,52.06888]}},{"type":"Feature","properties":{"name":"Dooks Golf Club","osm_id":"224531699","county":"Kerry","county_id":"IE_KERRY","jurisdiction":"ROI","pop_2022":156458},"geometry":{"type":"Point","coordinates":[-9.92805,52.08508]}},{"type":"Feature","properties":{"name":"Kanturk Golf Club","osm_id":"772978359","county":"Cork County","county_id":"IE_CORK_COUNTY","jurisdiction":"ROI","pop_2022":360152},"geometry":{"type":"Point","coordinates":[-8.92438,52.15621]}},{"type":"Feature","properties":{"name":"Castlegregory Golf Links","osm_id":"231515504","county":"Kerry","county_id":"IE_KERRY","jurisdiction":"ROI","pop_2022":156458},"geometry":{"type":"Point","coordinates":[-10.06195,52.25846]}},{"type":"Feature","properties":{"name":"Tralee Golf Club","osm_id":"351897616","county":"Kerry","county_id":"IE_KERRY","jurisdiction":"ROI","pop_2022":156458},"geometry":{"type":"Point","coordinates":[-9.85805,52.3034]}},{"type":"Feature","properties":{"name":"Ballyheigue Castle Golf Club","osm_id":"351893743","county":"Kerry","county_id":"IE_KERRY","jurisdiction":"ROI","pop_2022":156458},"geometry":{"type":"Point","coordinates":[-9.8404,52.39542]}},{"type":"Feature","properties":{"name":"Pitch and Putt Course","osm_id":"414651963","county":"Kerry","county_id":"IE_KERRY","jurisdiction":"ROI","pop_2022":156458},"geometry":{"type":"Point","coordinates":[-9.47969,52.44493]}},{"type":"Feature","properties":{"name":"Ballybunion Golf Club","osm_id":"19920899","county":"Kerry","county_id":"IE_KERRY","jurisdiction":"ROI","pop_2022":156458},"geometry":{"type":"Point","coordinates":[-9.67836,52.49563]}},{"type":"Feature","properties":{"name":"Adare Pitch & Putt","osm_id":"194780230","county":"Limerick City and County","county_id":"IE_LIMERICK_CITY_AND_COUNTY","jurisdiction":"ROI","pop_2022":209536},"geometry":{"type":"Point","coordinates":[-8.79508,52.55689]}},{"type":"Feature","properties":{"name":"Kilrush Golf Club","osm_id":"4452512","county":"Clare","county_id":"IE_CLARE","jurisdiction":"ROI","pop_2022":127419},"geometry":{"type":"Point","coordinates":[-9.46739,52.65113]}},{"type":"Feature","properties":{"name":"Shannon Golf Club","osm_id":"685642318","county":"Clare","county_id":"IE_CLARE","jurisdiction":"ROI","pop_2022":127419},"geometry":{"type":"Point","coordinates":[-8.93549,52.69183]}},{"type":"Feature","properties":{"name":"Doonbeg Golf Course","osm_id":"207562122","county":"Clare","county_id":"IE_CLARE","jurisdiction":"ROI","pop_2022":127419},"geometry":{"type":"Point","coordinates":[-9.49252,52.75662]}},{"type":"Feature","properties":{"name":"Woodstock Golf and Country Club","osm_id":"221824988","county":"Clare","county_id":"IE_CLARE","jurisdiction":"ROI","pop_2022":127419},"geometry":{"type":"Point","coordinates":[-9.02703,52.83802]}},{"type":"Feature","properties":{"name":"Ennis Golf Club","osm_id":"222331807","county":"Clare","county_id":"IE_CLARE","jurisdiction":"ROI","pop_2022":127419},"geometry":{"type":"Point","coordinates":[-9.00172,52.84068]}},{"type":"Feature","properties":{"name":"Spanish Point Golf Club","osm_id":"208238785","county":"Clare","county_id":"IE_CLARE","jurisdiction":"ROI","pop_2022":127419},"geometry":{"type":"Point","coordinates":[-9.42846,52.84101]}},{"type":"Feature","properties":{"name":"Old Course","osm_id":"233132474","county":"Clare","county_id":"IE_CLARE","jurisdiction":"ROI","pop_2022":127419},"geometry":{"type":"Point","coordinates":[-9.34912,52.94047]}},{"type":"Feature","properties":{"name":"Doolin Pitch and Putt","osm_id":"294765423","county":"Clare","county_id":"IE_CLARE","jurisdiction":"ROI","pop_2022":127419},"geometry":{"type":"Point","coordinates":[-9.39529,53.01304]}},{"type":"Feature","properties":{"name":"Gort Golf Course","osm_id":"4663741","county":"Galway County","county_id":"IE_GALWAY_COUNTY","jurisdiction":"ROI","pop_2022":193323},"geometry":{"type":"Point","coordinates":[-8.86757,53.06462]}},{"type":"Feature","properties":{"name":"Galway Bay Golf Resort","osm_id":"115712762","county":"Galway County","county_id":"IE_GALWAY_COUNTY","jurisdiction":"ROI","pop_2022":193323},"geometry":{"type":"Point","coordinates":[-8.97704,53.2504]}},{"type":"Feature","properties":{"name":"Galway Golf Course","osm_id":"3884429","county":"Galway City","county_id":"IE_GALWAY_CITY","jurisdiction":"ROI","pop_2022":85910},"geometry":{"type":"Point","coordinates":[-9.09627,53.26106]}},{"type":"Feature","properties":{"name":"Mellows Pitch & Putt","osm_id":"159553778","county":"Galway City","county_id":"IE_GALWAY_CITY","jurisdiction":"ROI","pop_2022":85910},"geometry":{"type":"Point","coordinates":[-9.0317,53.26918]}},{"type":"Feature","properties":{"name":"Taylors Hill Pitch & Putt","osm_id":"52349819","county":"Galway City","county_id":"IE_GALWAY_CITY","jurisdiction":"ROI","pop_2022":85910},"geometry":{"type":"Point","coordinates":[-9.07857,53.27037]}},{"type":"Feature","properties":{"name":"Bearna Golf Club","osm_id":"2374477","county":"Galway County","county_id":"IE_GALWAY_COUNTY","jurisdiction":"ROI","pop_2022":193323},"geometry":{"type":"Point","coordinates":[-9.173,53.27855]}},{"type":"Feature","properties":{"name":"Athenry Golf Club","osm_id":"849194204","county":"Galway County","county_id":"IE_GALWAY_COUNTY","jurisdiction":"ROI","pop_2022":193323},"geometry":{"type":"Point","coordinates":[-8.84622,53.28618]}},{"type":"Feature","properties":{"name":"Glenlo Abbey Golf Course","osm_id":"115737954","county":"Galway County","county_id":"IE_GALWAY_COUNTY","jurisdiction":"ROI","pop_2022":193323},"geometry":{"type":"Point","coordinates":[-9.0947,53.30097]}},{"type":"Feature","properties":{"name":"Cregboy Pitch & Putt","osm_id":"1293754795","county":"Galway County","county_id":"IE_GALWAY_COUNTY","jurisdiction":"ROI","pop_2022":193323},"geometry":{"type":"Point","coordinates":[-8.95647,53.32242]}},{"type":"Feature","properties":{"name":"Cregmore Park Golf Club","osm_id":"1051681319","county":"Galway County","county_id":"IE_GALWAY_COUNTY","jurisdiction":"ROI","pop_2022":193323},"geometry":{"type":"Point","coordinates":[-8.87081,53.3276]}},{"type":"Feature","properties":{"name":"Connemara Isles Golf Course","osm_id":"16686793","county":"Galway County","county_id":"IE_GALWAY_COUNTY","jurisdiction":"ROI","pop_2022":193323},"geometry":{"type":"Point","coordinates":[-9.63734,53.31872]}},{"type":"Feature","properties":{"name":"Oughterard Golf Club","osm_id":"194514560","county":"Galway County","county_id":"IE_GALWAY_COUNTY","jurisdiction":"ROI","pop_2022":193323},"geometry":{"type":"Point","coordinates":[-9.28929,53.42113]}},{"type":"Feature","properties":{"name":"Connemara Golf Club","osm_id":"177866566","county":"Galway County","county_id":"IE_GALWAY_COUNTY","jurisdiction":"ROI","pop_2022":193323},"geometry":{"type":"Point","coordinates":[-10.14296,53.42223]}},{"type":"Feature","properties":{"name":"Tuam Golf Club","osm_id":"177859666","county":"Galway County","county_id":"IE_GALWAY_COUNTY","jurisdiction":"ROI","pop_2022":193323},"geometry":{"type":"Point","coordinates":[-8.83083,53.49303]}},{"type":"Feature","properties":{"name":"Ballinrobe Golf Course","osm_id":"279966720","county":"Mayo","county_id":"IE_MAYO","jurisdiction":"ROI","pop_2022":137231},"geometry":{"type":"Point","coordinates":[-9.15772,53.6493]}},{"type":"Feature","properties":{"name":"Balla Par3 Golf Course","osm_id":"328261824","county":"Mayo","county_id":"IE_MAYO","jurisdiction":"ROI","pop_2022":137231},"geometry":{"type":"Point","coordinates":[-9.14144,53.80156]}},{"type":"Feature","properties":{"name":"Pitch and Putt","osm_id":"336803107","county":"Mayo","county_id":"IE_MAYO","jurisdiction":"ROI","pop_2022":137231},"geometry":{"type":"Point","coordinates":[-9.53871,53.80402]}},{"type":"Feature","properties":{"name":"Westport Golf Club","osm_id":"102902586","county":"Mayo","county_id":"IE_MAYO","jurisdiction":"ROI","pop_2022":137231},"geometry":{"type":"Point","coordinates":[-9.56542,53.81081]}},{"type":"Feature","properties":{"name":"Castlebar Golf Course","osm_id":"199381062","county":"Mayo","county_id":"IE_MAYO","jurisdiction":"ROI","pop_2022":137231},"geometry":{"type":"Point","coordinates":[-9.26608,53.83661]}},{"type":"Feature","properties":{"name":"Mulranny Golf Club","osm_id":"5805241","county":"Mayo","county_id":"IE_MAYO","jurisdiction":"ROI","pop_2022":137231},"geometry":{"type":"Point","coordinates":[-9.76263,53.9011]}},{"type":"Feature","properties":{"name":"Swinford Golf Club","osm_id":"5813209","county":"Mayo","county_id":"IE_MAYO","jurisdiction":"ROI","pop_2022":137231},"geometry":{"type":"Point","coordinates":[-8.95478,53.93328]}},{"type":"Feature","properties":{"name":"Doohoma Golf Course","osm_id":"1482465908","county":"Mayo","county_id":"IE_MAYO","jurisdiction":"ROI","pop_2022":137231},"geometry":{"type":"Point","coordinates":[-9.96091,54.07002]}},{"type":"Feature","properties":{"name":"Ballina Golf Course","osm_id":"12881933","county":"Mayo","county_id":"IE_MAYO","jurisdiction":"ROI","pop_2022":137231},"geometry":{"type":"Point","coordinates":[-9.12867,54.10588]}},{"type":"Feature","properties":{"name":"Enniscrone Golf Club","osm_id":"87249902","county":"Sligo","county_id":"IE_SLIGO","jurisdiction":"ROI","pop_2022":70198},"geometry":{"type":"Point","coordinates":[-9.1164,54.20602]}},{"type":"Feature","properties":{"name":"Enniscrone Pitch and Putt","osm_id":"257112801","county":"Sligo","county_id":"IE_SLIGO","jurisdiction":"ROI","pop_2022":70198},"geometry":{"type":"Point","coordinates":[-9.09341,54.21102]}},{"type":"Feature","properties":{"name":"Old Head Golf Links","osm_id":"31367056","county":"Cork County","county_id":"IE_CORK_COUNTY","jurisdiction":"ROI","pop_2022":360152},"geometry":{"type":"Point","coordinates":[-8.53668,51.61033]}},{"type":"Feature","properties":{"name":"Garrettstown Old Head Pitch And Putt Club","osm_id":"488416370","county":"Cork County","county_id":"IE_CORK_COUNTY","jurisdiction":"ROI","pop_2022":360152},"geometry":{"type":"Point","coordinates":[-8.56214,51.63969]}},{"type":"Feature","properties":{"name":"Kinsale Golf Club","osm_id":"75801795","county":"Cork County","county_id":"IE_CORK_COUNTY","jurisdiction":"ROI","pop_2022":360152},"geometry":{"type":"Point","coordinates":[-8.54198,51.73332]}},{"type":"Feature","properties":{"name":"Bandon Golf Club","osm_id":"199908668","county":"Cork County","county_id":"IE_CORK_COUNTY","jurisdiction":"ROI","pop_2022":360152},"geometry":{"type":"Point","coordinates":[-8.77292,51.74003]}},{"type":"Feature","properties":{"name":"Brinny Pitch & Putt club","osm_id":"682853584","county":"Cork County","county_id":"IE_CORK_COUNTY","jurisdiction":"ROI","pop_2022":360152},"geometry":{"type":"Point","coordinates":[-8.70806,51.79272]}},{"type":"Feature","properties":{"name":"Crosshaven Pitch & Putt Course","osm_id":"305520508","county":"Cork County","county_id":"IE_CORK_COUNTY","jurisdiction":"ROI","pop_2022":360152},"geometry":{"type":"Point","coordinates":[-8.2961,51.80031]}},{"type":"Feature","properties":{"name":"Raffeen Creek Golf Club","osm_id":"71436086","county":"Cork County","county_id":"IE_CORK_COUNTY","jurisdiction":"ROI","pop_2022":360152},"geometry":{"type":"Point","coordinates":[-8.35187,51.83536]}},{"type":"Feature","properties":{"name":"Monkstown Golf Club","osm_id":"7734408","county":"Cork County","county_id":"IE_CORK_COUNTY","jurisdiction":"ROI","pop_2022":360152},"geometry":{"type":"Point","coordinates":[-8.34499,51.84877]}},{"type":"Feature","properties":{"name":"Douglas Golf Club","osm_id":"31365117","county":"Cork City","county_id":"IE_CORK_CITY","jurisdiction":"ROI","pop_2022":224004},"geometry":{"type":"Point","coordinates":[-8.4222,51.86797]}},{"type":"Feature","properties":{"name":"Frankfield Golf Club & Golf Range","osm_id":"74204042","county":"Cork City","county_id":"IE_CORK_CITY","jurisdiction":"ROI","pop_2022":224004},"geometry":{"type":"Point","coordinates":[-8.46651,51.87122]}},{"type":"Feature","properties":{"name":"Cobh Golf Club","osm_id":"5959584","county":"Cork County","county_id":"IE_CORK_COUNTY","jurisdiction":"ROI","pop_2022":360152},"geometry":{"type":"Point","coordinates":[-8.31548,51.87601]}},{"type":"Feature","properties":{"name":"Lakewood Pitch & Putt Club","osm_id":"61118763","county":"Cork County","county_id":"IE_CORK_COUNTY","jurisdiction":"ROI","pop_2022":360152},"geometry":{"type":"Point","coordinates":[-8.64543,51.88072]}},{"type":"Feature","properties":{"name":"E.S.B. Pitch and Putt Club","osm_id":"998227322","county":"Cork City","county_id":"IE_CORK_CITY","jurisdiction":"ROI","pop_2022":224004},"geometry":{"type":"Point","coordinates":[-8.46287,51.8824]}},{"type":"Feature","properties":{"name":"Mahon Golf Club","osm_id":"31364578","county":"Cork City","county_id":"IE_CORK_CITY","jurisdiction":"ROI","pop_2022":224004},"geometry":{"type":"Point","coordinates":[-8.42222,51.88344]}},{"type":"Feature","properties":{"name":"Lee Valley Golf & Country Club","osm_id":"9767077","county":"Cork County","county_id":"IE_CORK_COUNTY","jurisdiction":"ROI","pop_2022":360152},"geometry":{"type":"Point","coordinates":[-8.70273,51.88623]}},{"type":"Feature","properties":{"name":"Ballinlough Pitch & Putt Club","osm_id":"42998956","county":"Cork City","county_id":"IE_CORK_CITY","jurisdiction":"ROI","pop_2022":224004},"geometry":{"type":"Point","coordinates":[-8.4311,51.88999]}},{"type":"Feature","properties":{"name":"Ranges Pitch and Putt Ballincollig","osm_id":"1212349577","county":"Cork City","county_id":"IE_CORK_CITY","jurisdiction":"ROI","pop_2022":224004},"geometry":{"type":"Point","coordinates":[-8.58644,51.89273]}},{"type":"Feature","properties":{"name":"Cork Golf Club","osm_id":"6120083","county":"Cork County","county_id":"IE_CORK_COUNTY","jurisdiction":"ROI","pop_2022":360152},"geometry":{"type":"Point","coordinates":[-8.35272,51.89591]}},{"type":"Feature","properties":{"name":"The Deerpark Course","osm_id":"31344751","county":"Cork County","county_id":"IE_CORK_COUNTY","jurisdiction":"ROI","pop_2022":360152},"geometry":{"type":"Point","coordinates":[-8.29678,51.89787]}},{"type":"Feature","properties":{"name":"Collins pitch & putt club","osm_id":"104004980","county":"Cork City","county_id":"IE_CORK_CITY","jurisdiction":"ROI","pop_2022":224004},"geometry":{"type":"Point","coordinates":[-8.46598,51.90529]}},{"type":"Feature","properties":{"name":"Muskerry Golf Course","osm_id":"128991232","county":"Cork City","county_id":"IE_CORK_CITY","jurisdiction":"ROI","pop_2022":224004},"geometry":{"type":"Point","coordinates":[-8.60605,51.91864]}},{"type":"Feature","properties":{"name":"Three Oaks Pitch and Putt Club","osm_id":"886481116","county":"Cork County","county_id":"IE_CORK_COUNTY","jurisdiction":"ROI","pop_2022":360152},"geometry":{"type":"Point","coordinates":[-8.67196,51.9276]}},{"type":"Feature","properties":{"name":"Blarney Driving Range","osm_id":"7171050","county":"Cork City","county_id":"IE_CORK_CITY","jurisdiction":"ROI","pop_2022":224004},"geometry":{"type":"Point","coordinates":[-8.5563,51.93367]}},{"type":"Feature","properties":{"name":"Blarney Golf Resort","osm_id":"6167831","county":"Cork City","county_id":"IE_CORK_CITY","jurisdiction":"ROI","pop_2022":224004},"geometry":{"type":"Point","coordinates":[-8.62537,51.93866]}},{"type":"Feature","properties":{"name":"St. Stephen's Pitch and Putt Course","osm_id":"170751085","county":"Cork City","county_id":"IE_CORK_CITY","jurisdiction":"ROI","pop_2022":224004},"geometry":{"type":"Point","coordinates":[-8.40346,51.9547]}},{"type":"Feature","properties":{"name":"Fermoy Golf Club","osm_id":"399489587","county":"Cork County","county_id":"IE_CORK_COUNTY","jurisdiction":"ROI","pop_2022":360152},"geometry":{"type":"Point","coordinates":[-8.29987,52.1109]}},{"type":"Feature","properties":{"name":"Mallow Golf Club","osm_id":"94975693","county":"Cork County","county_id":"IE_CORK_COUNTY","jurisdiction":"ROI","pop_2022":360152},"geometry":{"type":"Point","coordinates":[-8.62009,52.12824]}},{"type":"Feature","properties":{"name":"Fermoy Pitch and Putt Club","osm_id":"399308397","county":"Cork County","county_id":"IE_CORK_COUNTY","jurisdiction":"ROI","pop_2022":360152},"geometry":{"type":"Point","coordinates":[-8.27381,52.14497]}},{"type":"Feature","properties":{"name":"Doneraile Golf Club","osm_id":"180363730","county":"Cork County","county_id":"IE_CORK_COUNTY","jurisdiction":"ROI","pop_2022":360152},"geometry":{"type":"Point","coordinates":[-8.58904,52.22235]}},{"type":"Feature","properties":{"name":"Mitchelstown Pitch n' Put","osm_id":"316158883","county":"Cork County","county_id":"IE_CORK_COUNTY","jurisdiction":"ROI","pop_2022":360152},"geometry":{"type":"Point","coordinates":[-8.27958,52.268]}},{"type":"Feature","properties":{"name":"Mitchelstown Golf Course","osm_id":"184732037","county":"Cork County","county_id":"IE_CORK_COUNTY","jurisdiction":"ROI","pop_2022":360152},"geometry":{"type":"Point","coordinates":[-8.28398,52.28374]}},{"type":"Feature","properties":{"name":"Charleville Golf Club","osm_id":"6083609","county":"Cork County","county_id":"IE_CORK_COUNTY","jurisdiction":"ROI","pop_2022":360152},"geometry":{"type":"Point","coordinates":[-8.72075,52.34429]}},{"type":"Feature","properties":{"name":"Charleville Pitch and Putt Club","osm_id":"421499733","county":"Cork County","county_id":"IE_CORK_COUNTY","jurisdiction":"ROI","pop_2022":360152},"geometry":{"type":"Point","coordinates":[-8.68548,52.35161]}},{"type":"Feature","properties":{"name":"Adare Manor Hotel & Golf Resort Ireland","osm_id":"283343615","county":"Limerick City and County","county_id":"IE_LIMERICK_CITY_AND_COUNTY","jurisdiction":"ROI","pop_2022":209536},"geometry":{"type":"Point","coordinates":[-8.77498,52.56579]}},{"type":"Feature","properties":{"name":"Ballyneety Golf Club","osm_id":"496236823","county":"Limerick City and County","county_id":"IE_LIMERICK_CITY_AND_COUNTY","jurisdiction":"ROI","pop_2022":209536},"geometry":{"type":"Point","coordinates":[-8.55366,52.58958]}},{"type":"Feature","properties":{"name":"Limerick Golf Club","osm_id":"27232184","county":"Limerick City and County","county_id":"IE_LIMERICK_CITY_AND_COUNTY","jurisdiction":"ROI","pop_2022":209536},"geometry":{"type":"Point","coordinates":[-8.63015,52.61655]}},{"type":"Feature","properties":{"name":"Rathbane Golf Course","osm_id":"115836932","county":"Limerick City and County","county_id":"IE_LIMERICK_CITY_AND_COUNTY","jurisdiction":"ROI","pop_2022":209536},"geometry":{"type":"Point","coordinates":[-8.60269,52.6424]}},{"type":"Feature","properties":{"name":"Castletroy Golf Club","osm_id":"38003791","county":"Limerick City and County","county_id":"IE_LIMERICK_CITY_AND_COUNTY","jurisdiction":"ROI","pop_2022":209536},"geometry":{"type":"Point","coordinates":[-8.5618,52.6599]}},{"type":"Feature","properties":{"name":"Limerick Driving Range","osm_id":"126614195","county":"Limerick City and County","county_id":"IE_LIMERICK_CITY_AND_COUNTY","jurisdiction":"ROI","pop_2022":209536},"geometry":{"type":"Point","coordinates":[-8.68685,52.66515]}},{"type":"Feature","properties":{"name":"Landscape House Golf and Leisure","osm_id":"6232164","county":"Clare","county_id":"IE_CLARE","jurisdiction":"ROI","pop_2022":127419},"geometry":{"type":"Point","coordinates":[-8.5349,52.70556]}},{"type":"Feature","properties":{"name":"Ardnacrusha Pitch & Putt Golf Course","osm_id":"490480096","county":"Clare","county_id":"IE_CLARE","jurisdiction":"ROI","pop_2022":127419},"geometry":{"type":"Point","coordinates":[-8.6197,52.70779]}},{"type":"Feature","properties":{"name":"East Clare Golf Club","osm_id":"29390545","county":"Clare","county_id":"IE_CLARE","jurisdiction":"ROI","pop_2022":127419},"geometry":{"type":"Point","coordinates":[-8.60526,52.89833]}},{"type":"Feature","properties":{"name":"Portumna Golf Club","osm_id":"220535029","county":"Galway County","county_id":"IE_GALWAY_COUNTY","jurisdiction":"ROI","pop_2022":193323},"geometry":{"type":"Point","coordinates":[-8.25306,53.08642]}},{"type":"Feature","properties":{"name":"Oldthort 9 Hole Golf Club","osm_id":"278510875","county":"Galway County","county_id":"IE_GALWAY_COUNTY","jurisdiction":"ROI","pop_2022":193323},"geometry":{"type":"Point","coordinates":[-8.2477,53.10155]}},{"type":"Feature","properties":{"name":"Curra West Golf Club","osm_id":"278792447","county":"Galway County","county_id":"IE_GALWAY_COUNTY","jurisdiction":"ROI","pop_2022":193323},"geometry":{"type":"Point","coordinates":[-8.43816,53.11758]}},{"type":"Feature","properties":{"name":"Loughrea Golf Club","osm_id":"179542432","county":"Galway County","county_id":"IE_GALWAY_COUNTY","jurisdiction":"ROI","pop_2022":193323},"geometry":{"type":"Point","coordinates":[-8.55662,53.21648]}},{"type":"Feature","properties":{"name":"Esker Pitch and Putt","osm_id":"178393092","county":"Galway County","county_id":"IE_GALWAY_COUNTY","jurisdiction":"ROI","pop_2022":193323},"geometry":{"type":"Point","coordinates":[-8.68568,53.28249]}},{"type":"Feature","properties":{"name":"Mountbellew Golf Club","osm_id":"177858902","county":"Galway County","county_id":"IE_GALWAY_COUNTY","jurisdiction":"ROI","pop_2022":193323},"geometry":{"type":"Point","coordinates":[-8.52753,53.46226]}},{"type":"Feature","properties":{"name":"Dunmore Demesne Golf Club","osm_id":"262317797","county":"Galway County","county_id":"IE_GALWAY_COUNTY","jurisdiction":"ROI","pop_2022":193323},"geometry":{"type":"Point","coordinates":[-8.74503,53.61394]}},{"type":"Feature","properties":{"name":"Castlerea Golf Course","osm_id":"408700784","county":"Roscommon","county_id":"IE_ROSCOMMON","jurisdiction":"ROI","pop_2022":70259},"geometry":{"type":"Point","coordinates":[-8.5012,53.77158]}},{"type":"Feature","properties":{"name":"Ballyhaunis Golf Club","osm_id":"5745600","county":"Mayo","county_id":"IE_MAYO","jurisdiction":"ROI","pop_2022":137231},"geometry":{"type":"Point","coordinates":[-8.77666,53.79637]}},{"type":"Feature","properties":{"name":"Tubbercurry Golf Course","osm_id":"2928106","county":"Sligo","county_id":"IE_SLIGO","jurisdiction":"ROI","pop_2022":70198},"geometry":{"type":"Point","coordinates":[-8.71721,54.0541]}},{"type":"Feature","properties":{"name":"Ballymote Golf Course","osm_id":"2367393","county":"Sligo","county_id":"IE_SLIGO","jurisdiction":"ROI","pop_2022":70198},"geometry":{"type":"Point","coordinates":[-8.48899,54.08364]}},{"type":"Feature","properties":{"name":"Castle Dargan Golf Course","osm_id":"2826532","county":"Sligo","county_id":"IE_SLIGO","jurisdiction":"ROI","pop_2022":70198},"geometry":{"type":"Point","coordinates":[-8.43038,54.1977]}},{"type":"Feature","properties":{"name":"Strandhill Golf Club","osm_id":"2833895","county":"Sligo","county_id":"IE_SLIGO","jurisdiction":"ROI","pop_2022":70198},"geometry":{"type":"Point","coordinates":[-8.60692,54.26549]}},{"type":"Feature","properties":{"name":"Bertie's Pitch and Putt","osm_id":"2740165","county":"Sligo","county_id":"IE_SLIGO","jurisdiction":"ROI","pop_2022":70198},"geometry":{"type":"Point","coordinates":[-8.47403,54.29625]}},{"type":"Feature","properties":{"name":"County Sligo Golf Club","osm_id":"2387249","county":"Sligo","county_id":"IE_SLIGO","jurisdiction":"ROI","pop_2022":70198},"geometry":{"type":"Point","coordinates":[-8.56603,54.31581]}},{"type":"Feature","properties":{"name":"Bundoran Golf Club","osm_id":"10062906","county":"Donegal","county_id":"IE_DONEGAL","jurisdiction":"ROI","pop_2022":167084},"geometry":{"type":"Point","coordinates":[-8.27489,54.48618]}},{"type":"Feature","properties":{"name":"Galfch\u00c3\u00barsa Oile\u00c3\u00a1n na Cruite","osm_id":"1023297878","county":"Donegal","county_id":"IE_DONEGAL","jurisdiction":"ROI","pop_2022":167084},"geometry":{"type":"Point","coordinates":[-8.42743,55.04906]}},{"type":"Feature","properties":{"name":"Water Rock Golf Course","osm_id":"32999701","county":"Cork County","county_id":"IE_CORK_COUNTY","jurisdiction":"ROI","pop_2022":360152},"geometry":{"type":"Point","coordinates":[-8.19586,51.93178]}},{"type":"Feature","properties":{"name":"Youghal Pitch & Putt","osm_id":"153167008","county":"Cork County","county_id":"IE_CORK_COUNTY","jurisdiction":"ROI","pop_2022":360152},"geometry":{"type":"Point","coordinates":[-7.85728,51.93664]}},{"type":"Feature","properties":{"name":"Youghal Golf Course","osm_id":"5948491","county":"Cork County","county_id":"IE_CORK_COUNTY","jurisdiction":"ROI","pop_2022":360152},"geometry":{"type":"Point","coordinates":[-7.85017,51.94533]}},{"type":"Feature","properties":{"name":"Mini Golf","osm_id":"260429105","county":"Waterford City and County","county_id":"IE_WATERFORD_CITY_AND_COUNTY","jurisdiction":"ROI","pop_2022":127363},"geometry":{"type":"Point","coordinates":[-7.72672,51.95102]}},{"type":"Feature","properties":{"name":"West Waterford Golf Course Dungarvan","osm_id":"111611198","county":"Waterford City and County","county_id":"IE_WATERFORD_CITY_AND_COUNTY","jurisdiction":"ROI","pop_2022":127363},"geometry":{"type":"Point","coordinates":[-7.69596,52.08072]}},{"type":"Feature","properties":{"name":"Gold Coast Golf Course","osm_id":"33793611","county":"Waterford City and County","county_id":"IE_WATERFORD_CITY_AND_COUNTY","jurisdiction":"ROI","pop_2022":127363},"geometry":{"type":"Point","coordinates":[-7.56116,52.0817]}},{"type":"Feature","properties":{"name":"Cunnigar Pitch & Putt Club","osm_id":"557389677","county":"Waterford City and County","county_id":"IE_WATERFORD_CITY_AND_COUNTY","jurisdiction":"ROI","pop_2022":127363},"geometry":{"type":"Point","coordinates":[-7.62397,52.08373]}},{"type":"Feature","properties":{"name":"Castlelyons Pitch & Putt","osm_id":"894402531","county":"Cork County","county_id":"IE_CORK_COUNTY","jurisdiction":"ROI","pop_2022":360152},"geometry":{"type":"Point","coordinates":[-8.23518,52.0873]}},{"type":"Feature","properties":{"name":"Dungarvan Golf Club","osm_id":"71366764","county":"Waterford City and County","county_id":"IE_WATERFORD_CITY_AND_COUNTY","jurisdiction":"ROI","pop_2022":127363},"geometry":{"type":"Point","coordinates":[-7.58817,52.1081]}},{"type":"Feature","properties":{"name":"Lismore Golf Club","osm_id":"898238919","county":"Waterford City and County","county_id":"IE_WATERFORD_CITY_AND_COUNTY","jurisdiction":"ROI","pop_2022":127363},"geometry":{"type":"Point","coordinates":[-7.94137,52.14611]}},{"type":"Feature","properties":{"name":"Clonmel Golf Course","osm_id":"173103572","county":"Waterford City and County","county_id":"IE_WATERFORD_CITY_AND_COUNTY","jurisdiction":"ROI","pop_2022":127363},"geometry":{"type":"Point","coordinates":[-7.64866,52.3397]}},{"type":"Feature","properties":{"name":"Cahir Park Golf Club","osm_id":"150936757","county":"Tipperary","county_id":"IE_TIPPERARY","jurisdiction":"ROI","pop_2022":167895},"geometry":{"type":"Point","coordinates":[-7.9284,52.36617]}},{"type":"Feature","properties":{"name":"Slievenamon Golf Club","osm_id":"1025126814","county":"Tipperary","county_id":"IE_TIPPERARY","jurisdiction":"ROI","pop_2022":167895},"geometry":{"type":"Point","coordinates":[-7.70754,52.42624]}},{"type":"Feature","properties":{"name":"Rockwell 9 Hole Golf Course","osm_id":"264029639","county":"Tipperary","county_id":"IE_TIPPERARY","jurisdiction":"ROI","pop_2022":167895},"geometry":{"type":"Point","coordinates":[-7.89851,52.45675]}},{"type":"Feature","properties":{"name":"Tipperary Golf Club","osm_id":"198280821","county":"Tipperary","county_id":"IE_TIPPERARY","jurisdiction":"ROI","pop_2022":167895},"geometry":{"type":"Point","coordinates":[-8.15327,52.45732]}},{"type":"Feature","properties":{"name":"Tipperary Pitch & Putt","osm_id":"579969186","county":"Tipperary","county_id":"IE_TIPPERARY","jurisdiction":"ROI","pop_2022":167895},"geometry":{"type":"Point","coordinates":[-8.16817,52.47727]}},{"type":"Feature","properties":{"name":"Ballykisteen Golf Club","osm_id":"205278092","county":"Tipperary","county_id":"IE_TIPPERARY","jurisdiction":"ROI","pop_2022":167895},"geometry":{"type":"Point","coordinates":[-8.22279,52.50167]}},{"type":"Feature","properties":{"name":"Football Golf Cashel","osm_id":"929253504","county":"Tipperary","county_id":"IE_TIPPERARY","jurisdiction":"ROI","pop_2022":167895},"geometry":{"type":"Point","coordinates":[-7.86932,52.53472]}},{"type":"Feature","properties":{"name":"Dundrum House Golf Course","osm_id":"11551241","county":"Tipperary","county_id":"IE_TIPPERARY","jurisdiction":"ROI","pop_2022":167895},"geometry":{"type":"Point","coordinates":[-8.02919,52.55113]}},{"type":"Feature","properties":{"name":"Thurles Golf Club","osm_id":"272632947","county":"Tipperary","county_id":"IE_TIPPERARY","jurisdiction":"ROI","pop_2022":167895},"geometry":{"type":"Point","coordinates":[-7.80278,52.66066]}},{"type":"Feature","properties":{"name":"Templemore Golf Club","osm_id":"195048650","county":"Tipperary","county_id":"IE_TIPPERARY","jurisdiction":"ROI","pop_2022":167895},"geometry":{"type":"Point","coordinates":[-7.84153,52.7875]}},{"type":"Feature","properties":{"name":"Lakeside Pitch & Putt Club","osm_id":"196854777","county":"Tipperary","county_id":"IE_TIPPERARY","jurisdiction":"ROI","pop_2022":167895},"geometry":{"type":"Point","coordinates":[-7.83903,52.79987]}},{"type":"Feature","properties":{"name":"Rathdowney Golf Club","osm_id":"62720228","county":"Laois","county_id":"IE_LAOIS","jurisdiction":"ROI","pop_2022":91877},"geometry":{"type":"Point","coordinates":[-7.56904,52.84838]}},{"type":"Feature","properties":{"name":"Riverdale Pitch and Putt","osm_id":"864850688","county":"Tipperary","county_id":"IE_TIPPERARY","jurisdiction":"ROI","pop_2022":167895},"geometry":{"type":"Point","coordinates":[-8.18561,52.87419]}},{"type":"Feature","properties":{"name":"Nenagh Golf Club","osm_id":"277859633","county":"Tipperary","county_id":"IE_TIPPERARY","jurisdiction":"ROI","pop_2022":167895},"geometry":{"type":"Point","coordinates":[-8.12814,52.90335]}},{"type":"Feature","properties":{"name":"Roscrea Golf Club","osm_id":"1012779914","county":"Tipperary","county_id":"IE_TIPPERARY","jurisdiction":"ROI","pop_2022":167895},"geometry":{"type":"Point","coordinates":[-7.75161,52.95602]}},{"type":"Feature","properties":{"name":"Mountrath Golf Club","osm_id":"75601997","county":"Laois","county_id":"IE_LAOIS","jurisdiction":"ROI","pop_2022":91877},"geometry":{"type":"Point","coordinates":[-7.4842,52.97812]}},{"type":"Feature","properties":{"name":"Birr Golf Club","osm_id":"185001299","county":"Offaly","county_id":"IE_OFFALY","jurisdiction":"ROI","pop_2022":83150},"geometry":{"type":"Point","coordinates":[-7.90887,53.12876]}},{"type":"Feature","properties":{"name":"Tullamore Golf Club","osm_id":"58651232","county":"Offaly","county_id":"IE_OFFALY","jurisdiction":"ROI","pop_2022":83150},"geometry":{"type":"Point","coordinates":[-7.52909,53.24158]}},{"type":"Feature","properties":{"name":"Ferbane Pitch and Put","osm_id":"857502097","county":"Offaly","county_id":"IE_OFFALY","jurisdiction":"ROI","pop_2022":83150},"geometry":{"type":"Point","coordinates":[-7.83026,53.27635]}},{"type":"Feature","properties":{"name":"Tullamore Pitch and Putt","osm_id":"362223581","county":"Offaly","county_id":"IE_OFFALY","jurisdiction":"ROI","pop_2022":83150},"geometry":{"type":"Point","coordinates":[-7.49107,53.29453]}},{"type":"Feature","properties":{"name":"Esker Hills Golf Club","osm_id":"172597638","county":"Offaly","county_id":"IE_OFFALY","jurisdiction":"ROI","pop_2022":83150},"geometry":{"type":"Point","coordinates":[-7.55811,53.29643]}},{"type":"Feature","properties":{"name":"Ballinasloe Golf Club","osm_id":"220186317","county":"Galway County","county_id":"IE_GALWAY_COUNTY","jurisdiction":"ROI","pop_2022":193323},"geometry":{"type":"Point","coordinates":[-8.23381,53.30391]}},{"type":"Feature","properties":{"name":"Erry Pitch And Putt","osm_id":"671601461","county":"Offaly","county_id":"IE_OFFALY","jurisdiction":"ROI","pop_2022":83150},"geometry":{"type":"Point","coordinates":[-7.62029,53.33138]}},{"type":"Feature","properties":{"name":"Kilbeggan Pitch & Putt","osm_id":"357012888","county":"Westmeath","county_id":"IE_WESTMEATH","jurisdiction":"ROI","pop_2022":95840},"geometry":{"type":"Point","coordinates":[-7.49432,53.3753]}},{"type":"Feature","properties":{"name":"Moate Golf Course","osm_id":"155515704","county":"Westmeath","county_id":"IE_WESTMEATH","jurisdiction":"ROI","pop_2022":95840},"geometry":{"type":"Point","coordinates":[-7.72935,53.40269]}},{"type":"Feature","properties":{"name":"Woodview Country Club","osm_id":"356610724","county":"Roscommon","county_id":"IE_ROSCOMMON","jurisdiction":"ROI","pop_2022":70259},"geometry":{"type":"Point","coordinates":[-8.01877,53.42607]}},{"type":"Feature","properties":{"name":"Mount Temple Golf Course","osm_id":"828810933","county":"Westmeath","county_id":"IE_WESTMEATH","jurisdiction":"ROI","pop_2022":95840},"geometry":{"type":"Point","coordinates":[-7.77596,53.43211]}},{"type":"Feature","properties":{"name":"Hodson Bay Golf Course","osm_id":"150029738","county":"Roscommon","county_id":"IE_ROSCOMMON","jurisdiction":"ROI","pop_2022":70259},"geometry":{"type":"Point","coordinates":[-7.99012,53.46955]}},{"type":"Feature","properties":{"name":"Roscommon Golf Club","osm_id":"196205642","county":"Roscommon","county_id":"IE_ROSCOMMON","jurisdiction":"ROI","pop_2022":70259},"geometry":{"type":"Point","coordinates":[-8.17413,53.61545]}},{"type":"Feature","properties":{"name":"County Longford Golf Club","osm_id":"177769330","county":"Longford","county_id":"IE_LONGFORD","jurisdiction":"ROI","pop_2022":46634},"geometry":{"type":"Point","coordinates":[-7.77842,53.7196]}},{"type":"Feature","properties":{"name":"Strokestown Golf Club","osm_id":"187497172","county":"Roscommon","county_id":"IE_ROSCOMMON","jurisdiction":"ROI","pop_2022":70259},"geometry":{"type":"Point","coordinates":[-8.07582,53.76754]}},{"type":"Feature","properties":{"name":"Ballinalee Pitch and Putt Course","osm_id":"172998730","county":"Longford","county_id":"IE_LONGFORD","jurisdiction":"ROI","pop_2022":46634},"geometry":{"type":"Point","coordinates":[-7.65196,53.76804]}},{"type":"Feature","properties":{"name":"Pitch and Putt course","osm_id":"161931445","county":"Longford","county_id":"IE_LONGFORD","jurisdiction":"ROI","pop_2022":46634},"geometry":{"type":"Point","coordinates":[-7.48993,53.77153]}},{"type":"Feature","properties":{"name":"Lough Rynn Golf Club","osm_id":"919348602","county":"Leitrim","county_id":"IE_LEITRIM","jurisdiction":"ROI","pop_2022":35199},"geometry":{"type":"Point","coordinates":[-7.83898,53.89594]}},{"type":"Feature","properties":{"name":"Cornafean Pitch and Putt","osm_id":"1275884556","county":"Cavan","county_id":"IE_CAVAN","jurisdiction":"ROI","pop_2022":81201},"geometry":{"type":"Point","coordinates":[-7.48876,53.94721]}},{"type":"Feature","properties":{"name":"Carrick on Shannon Golf Club","osm_id":"3198918","county":"Roscommon","county_id":"IE_ROSCOMMON","jurisdiction":"ROI","pop_2022":70259},"geometry":{"type":"Point","coordinates":[-8.16954,53.96414]}},{"type":"Feature","properties":{"name":"Ballinamore Golf Club","osm_id":"2758801","county":"Leitrim","county_id":"IE_LEITRIM","jurisdiction":"ROI","pop_2022":35199},"geometry":{"type":"Point","coordinates":[-7.8338,54.05508]}},{"type":"Feature","properties":{"name":"Slieve Russell Golf Club","osm_id":"191502808","county":"Cavan","county_id":"IE_CAVAN","jurisdiction":"ROI","pop_2022":81201},"geometry":{"type":"Point","coordinates":[-7.56103,54.09222]}},{"type":"Feature","properties":{"name":"Belturbet Golf Course","osm_id":"524320659","county":"Cavan","county_id":"IE_CAVAN","jurisdiction":"ROI","pop_2022":81201},"geometry":{"type":"Point","coordinates":[-7.4317,54.10073]}},{"type":"Feature","properties":{"name":"Blacklion Golf Club","osm_id":"500466987","county":"Cavan","county_id":"IE_CAVAN","jurisdiction":"ROI","pop_2022":81201},"geometry":{"type":"Point","coordinates":[-7.89512,54.29771]}},{"type":"Feature","properties":{"name":"Ashwoods Golf Centre","osm_id":"533920226","county":"Fermanagh and Omagh","county_id":"NI_FERMANAGH_AND_OMAGH","jurisdiction":"NI","pop_2022":117397},"geometry":{"type":"Point","coordinates":[-7.67863,54.32684]}},{"type":"Feature","properties":{"name":"Enniskillen Golf Club","osm_id":"3808523","county":"Fermanagh and Omagh","county_id":"NI_FERMANAGH_AND_OMAGH","jurisdiction":"NI","pop_2022":117397},"geometry":{"type":"Point","coordinates":[-7.61637,54.3374]}},{"type":"Feature","properties":{"name":"Lough Erne Golf Resort","osm_id":"193162288","county":"Fermanagh and Omagh","county_id":"NI_FERMANAGH_AND_OMAGH","jurisdiction":"NI","pop_2022":117397},"geometry":{"type":"Point","coordinates":[-7.69526,54.39789]}},{"type":"Feature","properties":{"name":"Newtownstewart Golf Club","osm_id":"508141751","county":"Derry City and Strabane","county_id":"NI_DERRY_CITY_AND_STRABANE","jurisdiction":"NI","pop_2022":150756},"geometry":{"type":"Point","coordinates":[-7.42114,54.70395]}},{"type":"Feature","properties":{"name":"Hill Valley Golf","osm_id":"675243310","county":"Derry City and Strabane","county_id":"NI_DERRY_CITY_AND_STRABANE","jurisdiction":"NI","pop_2022":150756},"geometry":{"type":"Point","coordinates":[-7.48574,54.79219]}},{"type":"Feature","properties":{"name":"Strabane Golf Club","osm_id":"201194096","county":"Derry City and Strabane","county_id":"NI_DERRY_CITY_AND_STRABANE","jurisdiction":"NI","pop_2022":150756},"geometry":{"type":"Point","coordinates":[-7.46398,54.81296]}},{"type":"Feature","properties":{"name":"North West Golf Club","osm_id":"186915211","county":"Donegal","county_id":"IE_DONEGAL","jurisdiction":"ROI","pop_2022":167084},"geometry":{"type":"Point","coordinates":[-7.47008,55.10935]}},{"type":"Feature","properties":{"name":"Buncrana Golf Club","osm_id":"14172645","county":"Donegal","county_id":"IE_DONEGAL","jurisdiction":"ROI","pop_2022":167084},"geometry":{"type":"Point","coordinates":[-7.45844,55.12533]}},{"type":"Feature","properties":{"name":"Rosapenna Golf Course","osm_id":"455514544","county":"Donegal","county_id":"IE_DONEGAL","jurisdiction":"ROI","pop_2022":167084},"geometry":{"type":"Point","coordinates":[-7.81828,55.18196]}},{"type":"Feature","properties":{"name":"Portsalon Golf Club","osm_id":"382859865","county":"Donegal","county_id":"IE_DONEGAL","jurisdiction":"ROI","pop_2022":167084},"geometry":{"type":"Point","coordinates":[-7.62421,55.19944]}},{"type":"Feature","properties":{"name":"Eelburn Pitch and Putt","osm_id":"366137487","county":"Donegal","county_id":"IE_DONEGAL","jurisdiction":"ROI","pop_2022":167084},"geometry":{"type":"Point","coordinates":[-7.70355,55.24396]}},{"type":"Feature","properties":{"name":"Tramore Pitch and Putt","osm_id":"264236479","county":"Waterford City and County","county_id":"IE_WATERFORD_CITY_AND_COUNTY","jurisdiction":"ROI","pop_2022":127363},"geometry":{"type":"Point","coordinates":[-7.179,52.14268]}},{"type":"Feature","properties":{"name":"Tramore Golf Club","osm_id":"44326548","county":"Waterford City and County","county_id":"IE_WATERFORD_CITY_AND_COUNTY","jurisdiction":"ROI","pop_2022":127363},"geometry":{"type":"Point","coordinates":[-7.1758,52.15876]}},{"type":"Feature","properties":{"name":"Dunmore East Golf Club","osm_id":"69691359","county":"Waterford City and County","county_id":"IE_WATERFORD_CITY_AND_COUNTY","jurisdiction":"ROI","pop_2022":127363},"geometry":{"type":"Point","coordinates":[-6.98708,52.15894]}},{"type":"Feature","properties":{"name":"Abbey Par 3 Golf Course","osm_id":"3363046","county":"Wexford","county_id":"IE_WEXFORD","jurisdiction":"ROI","pop_2022":163919},"geometry":{"type":"Point","coordinates":[-6.86473,52.23082]}},{"type":"Feature","properties":{"name":"Williamstown Golf Course","osm_id":"45327512","county":"Waterford City and County","county_id":"IE_WATERFORD_CITY_AND_COUNTY","jurisdiction":"ROI","pop_2022":127363},"geometry":{"type":"Point","coordinates":[-7.08871,52.23354]}},{"type":"Feature","properties":{"name":"Pitch and Putt","osm_id":"58023571","county":"Waterford City and County","county_id":"IE_WATERFORD_CITY_AND_COUNTY","jurisdiction":"ROI","pop_2022":127363},"geometry":{"type":"Point","coordinates":[-7.12337,52.24448]}},{"type":"Feature","properties":{"name":"Waterford Castle Golf Club","osm_id":"46354377","county":"Waterford City and County","county_id":"IE_WATERFORD_CITY_AND_COUNTY","jurisdiction":"ROI","pop_2022":127363},"geometry":{"type":"Point","coordinates":[-7.05369,52.25011]}},{"type":"Feature","properties":{"name":"Faithlegg Golf Club","osm_id":"146203027","county":"Waterford City and County","county_id":"IE_WATERFORD_CITY_AND_COUNTY","jurisdiction":"ROI","pop_2022":127363},"geometry":{"type":"Point","coordinates":[-7.02471,52.25803]}},{"type":"Feature","properties":{"name":"Waterford Golf Club","osm_id":"365318","county":"Kilkenny","county_id":"IE_KILKENNY","jurisdiction":"ROI","pop_2022":104160},"geometry":{"type":"Point","coordinates":[-7.11818,52.27193]}},{"type":"Feature","properties":{"name":"Ashgrove Pitch & Putt Club","osm_id":"827961182","county":"Kilkenny","county_id":"IE_KILKENNY","jurisdiction":"ROI","pop_2022":104160},"geometry":{"type":"Point","coordinates":[-7.22305,52.28903]}},{"type":"Feature","properties":{"name":"Carrick-on-Suir Golf Club","osm_id":"1083480521","county":"Waterford City and County","county_id":"IE_WATERFORD_CITY_AND_COUNTY","jurisdiction":"ROI","pop_2022":127363},"geometry":{"type":"Point","coordinates":[-7.4168,52.33418]}},{"type":"Feature","properties":{"name":"Ballinteskin Par 3 Golf Course","osm_id":"242215228","county":"Wexford","county_id":"IE_WEXFORD","jurisdiction":"ROI","pop_2022":163919},"geometry":{"type":"Point","coordinates":[-6.94005,52.35106]}},{"type":"Feature","properties":{"name":"New Ross Golf Club","osm_id":"57043376","county":"Kilkenny","county_id":"IE_KILKENNY","jurisdiction":"ROI","pop_2022":104160},"geometry":{"type":"Point","coordinates":[-6.97097,52.40647]}},{"type":"Feature","properties":{"name":"Scarke Golf Course","osm_id":"3177442","county":"Wexford","county_id":"IE_WEXFORD","jurisdiction":"ROI","pop_2022":163919},"geometry":{"type":"Point","coordinates":[-6.89137,52.41251]}},{"type":"Feature","properties":{"name":"Mountain View Golf Course","osm_id":"281389260","county":"Kilkenny","county_id":"IE_KILKENNY","jurisdiction":"ROI","pop_2022":104160},"geometry":{"type":"Point","coordinates":[-7.18389,52.45588]}},{"type":"Feature","properties":{"name":"Carrigleade Golf Course","osm_id":"136222001","county":"Carlow","county_id":"IE_CARLOW","jurisdiction":"ROI","pop_2022":61968},"geometry":{"type":"Point","coordinates":[-6.91993,52.52056]}},{"type":"Feature","properties":{"name":"Mount Juliet Golf Course","osm_id":"2106715","county":"Kilkenny","county_id":"IE_KILKENNY","jurisdiction":"ROI","pop_2022":104160},"geometry":{"type":"Point","coordinates":[-7.18812,52.52455]}},{"type":"Feature","properties":{"name":"Borris Golf Course","osm_id":"164370705","county":"Carlow","county_id":"IE_CARLOW","jurisdiction":"ROI","pop_2022":61968},"geometry":{"type":"Point","coordinates":[-6.91831,52.59195]}},{"type":"Feature","properties":{"name":"Gowran Park","osm_id":"2023596","county":"Kilkenny","county_id":"IE_KILKENNY","jurisdiction":"ROI","pop_2022":104160},"geometry":{"type":"Point","coordinates":[-7.06949,52.61618]}},{"type":"Feature","properties":{"name":"Gowran Pitch&Putt","osm_id":"303493132","county":"Kilkenny","county_id":"IE_KILKENNY","jurisdiction":"ROI","pop_2022":104160},"geometry":{"type":"Point","coordinates":[-7.05721,52.63124]}},{"type":"Feature","properties":{"name":"Lacken Pitch&Putt Club","osm_id":"126257860","county":"Kilkenny","county_id":"IE_KILKENNY","jurisdiction":"ROI","pop_2022":104160},"geometry":{"type":"Point","coordinates":[-7.2351,52.64958]}},{"type":"Feature","properties":{"name":"Kilkenny Golf Club","osm_id":"49002353","county":"Kilkenny","county_id":"IE_KILKENNY","jurisdiction":"ROI","pop_2022":104160},"geometry":{"type":"Point","coordinates":[-7.24296,52.67129]}},{"type":"Feature","properties":{"name":"Pococke Golf Course","osm_id":"301007504","county":"Kilkenny","county_id":"IE_KILKENNY","jurisdiction":"ROI","pop_2022":104160},"geometry":{"type":"Point","coordinates":[-7.22356,52.66723]}},{"type":"Feature","properties":{"name":"Bagenalstown Pitch & Putt Club","osm_id":"137839851","county":"Carlow","county_id":"IE_CARLOW","jurisdiction":"ROI","pop_2022":61968},"geometry":{"type":"Point","coordinates":[-6.95041,52.70674]}},{"type":"Feature","properties":{"name":"Castlecomer Golf Club","osm_id":"187883724","county":"Kilkenny","county_id":"IE_KILKENNY","jurisdiction":"ROI","pop_2022":104160},"geometry":{"type":"Point","coordinates":[-7.20263,52.80066]}},{"type":"Feature","properties":{"name":"Quinagh House Par 3","osm_id":"138371587","county":"Carlow","county_id":"IE_CARLOW","jurisdiction":"ROI","pop_2022":61968},"geometry":{"type":"Point","coordinates":[-6.93243,52.81545]}},{"type":"Feature","properties":{"name":"Carlow Golf Centre","osm_id":"1058367211","county":"Laois","county_id":"IE_LAOIS","jurisdiction":"ROI","pop_2022":91877},"geometry":{"type":"Point","coordinates":[-6.95587,52.83064]}},{"type":"Feature","properties":{"name":"Carlow Golf Club","osm_id":"170591197","county":"Carlow","county_id":"IE_CARLOW","jurisdiction":"ROI","pop_2022":61968},"geometry":{"type":"Point","coordinates":[-6.89153,52.85855]}},{"type":"Feature","properties":{"name":"Abbeyleix Golf Club","osm_id":"75592042","county":"Laois","county_id":"IE_LAOIS","jurisdiction":"ROI","pop_2022":91877},"geometry":{"type":"Point","coordinates":[-7.33349,52.91991]}},{"type":"Feature","properties":{"name":"Kilkea Castle Golf Course","osm_id":"47219013","county":"Kildare","county_id":"IE_KILDARE","jurisdiction":"ROI","pop_2022":247774},"geometry":{"type":"Point","coordinates":[-6.88713,52.94415]}},{"type":"Feature","properties":{"name":"Athy Golf Club","osm_id":"336535530","county":"Kildare","county_id":"IE_KILDARE","jurisdiction":"ROI","pop_2022":247774},"geometry":{"type":"Point","coordinates":[-6.95624,53.00668]}},{"type":"Feature","properties":{"name":"Portlaoise Golf Club","osm_id":"62763512","county":"Laois","county_id":"IE_LAOIS","jurisdiction":"ROI","pop_2022":91877},"geometry":{"type":"Point","coordinates":[-7.29291,53.02256]}},{"type":"Feature","properties":{"name":"The Heath Golf Club","osm_id":"33146520","county":"Laois","county_id":"IE_LAOIS","jurisdiction":"ROI","pop_2022":91877},"geometry":{"type":"Point","coordinates":[-7.2142,53.06217]}},{"type":"Feature","properties":{"name":"The Heritage Golf Club","osm_id":"78017168","county":"Laois","county_id":"IE_LAOIS","jurisdiction":"ROI","pop_2022":91877},"geometry":{"type":"Point","coordinates":[-7.15863,53.13444]}},{"type":"Feature","properties":{"name":"Portarlington Golf Club","osm_id":"75589299","county":"Offaly","county_id":"IE_OFFALY","jurisdiction":"ROI","pop_2022":83150},"geometry":{"type":"Point","coordinates":[-7.24006,53.14358]}},{"type":"Feature","properties":{"name":"Dunmurry Springs Golf Club","osm_id":"85612311","county":"Kildare","county_id":"IE_KILDARE","jurisdiction":"ROI","pop_2022":247774},"geometry":{"type":"Point","coordinates":[-6.93671,53.19009]}},{"type":"Feature","properties":{"name":"Castle Barna Golf Club","osm_id":"148399996","county":"Offaly","county_id":"IE_OFFALY","jurisdiction":"ROI","pop_2022":83150},"geometry":{"type":"Point","coordinates":[-7.27786,53.30101]}},{"type":"Feature","properties":{"name":"Edenderry Pitch and Putt","osm_id":"1190672349","county":"Offaly","county_id":"IE_OFFALY","jurisdiction":"ROI","pop_2022":83150},"geometry":{"type":"Point","coordinates":[-7.05192,53.33708]}},{"type":"Feature","properties":{"name":"Moyvalley","osm_id":"263841644","county":"Kildare","county_id":"IE_KILDARE","jurisdiction":"ROI","pop_2022":247774},"geometry":{"type":"Point","coordinates":[-6.92242,53.41232]}},{"type":"Feature","properties":{"name":"Rochfortbridge Pitch & Putt Course","osm_id":"794821696","county":"Westmeath","county_id":"IE_WESTMEATH","jurisdiction":"ROI","pop_2022":95840},"geometry":{"type":"Point","coordinates":[-7.29768,53.42004]}},{"type":"Feature","properties":{"name":"Rathcore Golf Club","osm_id":"280046833","county":"Meath","county_id":"IE_MEATH","jurisdiction":"ROI","pop_2022":220326},"geometry":{"type":"Point","coordinates":[-6.83412,53.44855]}},{"type":"Feature","properties":{"name":"Mullingar Golf Club","osm_id":"179100933","county":"Westmeath","county_id":"IE_WESTMEATH","jurisdiction":"ROI","pop_2022":95840},"geometry":{"type":"Point","coordinates":[-7.35927,53.48076]}},{"type":"Feature","properties":{"name":"Lough Owel Pitch and Putt","osm_id":"304215660","county":"Westmeath","county_id":"IE_WESTMEATH","jurisdiction":"ROI","pop_2022":95840},"geometry":{"type":"Point","coordinates":[-7.38085,53.55292]}},{"type":"Feature","properties":{"name":"Delvin Castle Golf Club","osm_id":"207478953","county":"Westmeath","county_id":"IE_WESTMEATH","jurisdiction":"ROI","pop_2022":95840},"geometry":{"type":"Point","coordinates":[-7.10358,53.61326]}},{"type":"Feature","properties":{"name":"Collinstown Pitch & Putt","osm_id":"300951930","county":"Westmeath","county_id":"IE_WESTMEATH","jurisdiction":"ROI","pop_2022":95840},"geometry":{"type":"Point","coordinates":[-7.2239,53.64916]}},{"type":"Feature","properties":{"name":"Headfort Golf Glub","osm_id":"12882627","county":"Meath","county_id":"IE_MEATH","jurisdiction":"ROI","pop_2022":220326},"geometry":{"type":"Point","coordinates":[-6.85311,53.72873]}},{"type":"Feature","properties":{"name":"Oldcastle Pitch & Putt Club","osm_id":"175616332","county":"Meath","county_id":"IE_MEATH","jurisdiction":"ROI","pop_2022":220326},"geometry":{"type":"Point","coordinates":[-7.15603,53.77107]}},{"type":"Feature","properties":{"name":"Virginia Golf Club","osm_id":"24247860","county":"Cavan","county_id":"IE_CAVAN","jurisdiction":"ROI","pop_2022":81201},"geometry":{"type":"Point","coordinates":[-7.09232,53.83289]}},{"type":"Feature","properties":{"name":"Sillan Park Pitch and Putt","osm_id":"504214280","county":"Cavan","county_id":"IE_CAVAN","jurisdiction":"ROI","pop_2022":81201},"geometry":{"type":"Point","coordinates":[-6.88906,53.99505]}},{"type":"Feature","properties":{"name":"County Cavan Golf Club","osm_id":"283353704","county":"Cavan","county_id":"IE_CAVAN","jurisdiction":"ROI","pop_2022":81201},"geometry":{"type":"Point","coordinates":[-7.38488,54.00088]}},{"type":"Feature","properties":{"name":"Farnham Estate Spa and Golf Resort, Cavan","osm_id":"909772623","county":"Cavan","county_id":"IE_CAVAN","jurisdiction":"ROI","pop_2022":81201},"geometry":{"type":"Point","coordinates":[-7.40707,54.0014]}},{"type":"Feature","properties":{"name":"Clones Golf Club","osm_id":"5647782","county":"Monaghan","county_id":"IE_MONAGHAN","jurisdiction":"ROI","pop_2022":65288},"geometry":{"type":"Point","coordinates":[-7.23755,54.13513]}},{"type":"Feature","properties":{"name":"Rossmore Golf Club","osm_id":"5691501","county":"Monaghan","county_id":"IE_MONAGHAN","jurisdiction":"ROI","pop_2022":65288},"geometry":{"type":"Point","coordinates":[-6.99283,54.21584]}},{"type":"Feature","properties":{"name":"Clogher Valley Golf Club","osm_id":"261547242","county":"Fermanagh and Omagh","county_id":"NI_FERMANAGH_AND_OMAGH","jurisdiction":"NI","pop_2022":117397},"geometry":{"type":"Point","coordinates":[-7.34075,54.36677]}},{"type":"Feature","properties":{"name":"Fintona Golf Club","osm_id":"508157859","county":"Fermanagh and Omagh","county_id":"NI_FERMANAGH_AND_OMAGH","jurisdiction":"NI","pop_2022":117397},"geometry":{"type":"Point","coordinates":[-7.31979,54.49225]}},{"type":"Feature","properties":{"name":"Omagh Golf Club","osm_id":"19313752","county":"Fermanagh and Omagh","county_id":"NI_FERMANAGH_AND_OMAGH","jurisdiction":"NI","pop_2022":117397},"geometry":{"type":"Point","coordinates":[-7.292,54.59002]}},{"type":"Feature","properties":{"name":"Faughan Valley Golf Centre","osm_id":"19313795","county":"Derry City and Strabane","county_id":"NI_DERRY_CITY_AND_STRABANE","jurisdiction":"NI","pop_2022":150756},"geometry":{"type":"Point","coordinates":[-7.24703,55.02146]}},{"type":"Feature","properties":{"name":"Foyle Golf Club","osm_id":"155328921","county":"Derry City and Strabane","county_id":"NI_DERRY_CITY_AND_STRABANE","jurisdiction":"NI","pop_2022":150756},"geometry":{"type":"Point","coordinates":[-7.29103,55.04008]}},{"type":"Feature","properties":{"name":"Golf at Roe Valley","osm_id":"387137135","county":"Causeway Coast and Glens","county_id":"NI_CAUSEWAY_COAST_AND_GLENS","jurisdiction":"NI","pop_2022":144838},"geometry":{"type":"Point","coordinates":[-6.95747,55.0379]}},{"type":"Feature","properties":{"name":"Redcastle Hotel golf course","osm_id":"242924920","county":"Donegal","county_id":"IE_DONEGAL","jurisdiction":"ROI","pop_2022":167084},"geometry":{"type":"Point","coordinates":[-7.12869,55.15932]}},{"type":"Feature","properties":{"name":"Greencastle Golf Club","osm_id":"207627004","county":"Donegal","county_id":"IE_DONEGAL","jurisdiction":"ROI","pop_2022":167084},"geometry":{"type":"Point","coordinates":[-6.95944,55.21043]}},{"type":"Feature","properties":{"name":"Enniscorthy Golf Course","osm_id":"29035215","county":"Wexford","county_id":"IE_WEXFORD","jurisdiction":"ROI","pop_2022":163919},"geometry":{"type":"Point","coordinates":[-6.60027,52.48972]}},{"type":"Feature","properties":{"name":"Bunclody Golf Course","osm_id":"2202815","county":"Carlow","county_id":"IE_CARLOW","jurisdiction":"ROI","pop_2022":61968},"geometry":{"type":"Point","coordinates":[-6.66503,52.6631]}},{"type":"Feature","properties":{"name":"Coollattin Golf Course","osm_id":"32454890","county":"Wicklow","county_id":"IE_WICKLOW","jurisdiction":"ROI","pop_2022":155851},"geometry":{"type":"Point","coordinates":[-6.49993,52.75298]}},{"type":"Feature","properties":{"name":"Mount Wolseley Golf Course","osm_id":"37794554","county":"Carlow","county_id":"IE_CARLOW","jurisdiction":"ROI","pop_2022":61968},"geometry":{"type":"Point","coordinates":[-6.73023,52.79028]}},{"type":"Feature","properties":{"name":"Killerig Golf Course","osm_id":"170568534","county":"Carlow","county_id":"IE_CARLOW","jurisdiction":"ROI","pop_2022":61968},"geometry":{"type":"Point","coordinates":[-6.78955,52.83644]}},{"type":"Feature","properties":{"name":"Castledermot Pitch and Putt","osm_id":"512981699","county":"Kildare","county_id":"IE_KILDARE","jurisdiction":"ROI","pop_2022":247774},"geometry":{"type":"Point","coordinates":[-6.84143,52.90464]}},{"type":"Feature","properties":{"name":"Baltinglass Golf Course","osm_id":"37795275","county":"Wicklow","county_id":"IE_WICKLOW","jurisdiction":"ROI","pop_2022":155851},"geometry":{"type":"Point","coordinates":[-6.7195,52.94602]}},{"type":"Feature","properties":{"name":"Rathsallagh","osm_id":"374573641","county":"Wicklow","county_id":"IE_WICKLOW","jurisdiction":"ROI","pop_2022":155851},"geometry":{"type":"Point","coordinates":[-6.73307,53.03018]}},{"type":"Feature","properties":{"name":"Poulaphouca Pitch and Putt Club","osm_id":"438130935","county":"Kildare","county_id":"IE_KILDARE","jurisdiction":"ROI","pop_2022":247774},"geometry":{"type":"Point","coordinates":[-6.58398,53.12225]}},{"type":"Feature","properties":{"name":"Tulfarris Hotel and Golf Resort","osm_id":"71604727","county":"Wicklow","county_id":"IE_WICKLOW","jurisdiction":"ROI","pop_2022":155851},"geometry":{"type":"Point","coordinates":[-6.55895,53.12561]}},{"type":"Feature","properties":{"name":"Saint Bridget's Pitch and Putt Club","osm_id":"495081650","county":"Kildare","county_id":"IE_KILDARE","jurisdiction":"ROI","pop_2022":247774},"geometry":{"type":"Point","coordinates":[-6.753,53.12834]}},{"type":"Feature","properties":{"name":"The Royal Curragh Golf Course","osm_id":"796446520","county":"Kildare","county_id":"IE_KILDARE","jurisdiction":"ROI","pop_2022":247774},"geometry":{"type":"Point","coordinates":[-6.80736,53.14559]}},{"type":"Feature","properties":{"name":"Newbridge Golf Club","osm_id":"85827508","county":"Kildare","county_id":"IE_KILDARE","jurisdiction":"ROI","pop_2022":247774},"geometry":{"type":"Point","coordinates":[-6.78632,53.20386]}},{"type":"Feature","properties":{"name":"Craddockstown Golf Course","osm_id":"57736618","county":"Kildare","county_id":"IE_KILDARE","jurisdiction":"ROI","pop_2022":247774},"geometry":{"type":"Point","coordinates":[-6.63833,53.20441]}},{"type":"Feature","properties":{"name":"Naas Golf Club","osm_id":"81992166","county":"Kildare","county_id":"IE_KILDARE","jurisdiction":"ROI","pop_2022":247774},"geometry":{"type":"Point","coordinates":[-6.63903,53.24905]}},{"type":"Feature","properties":{"name":"Slade Valley Golf Club","osm_id":"42552098","county":"South Dublin","county_id":"IE_SOUTH_DUBLIN","jurisdiction":"ROI","pop_2022":301705},"geometry":{"type":"Point","coordinates":[-6.47023,53.258]}},{"type":"Feature","properties":{"name":"Beech Park Golf Club","osm_id":"4474497","county":"South Dublin","county_id":"IE_SOUTH_DUBLIN","jurisdiction":"ROI","pop_2022":301705},"geometry":{"type":"Point","coordinates":[-6.50248,53.25975]}},{"type":"Feature","properties":{"name":"Killeen Golf Club","osm_id":"91530747","county":"Kildare","county_id":"IE_KILDARE","jurisdiction":"ROI","pop_2022":247774},"geometry":{"type":"Point","coordinates":[-6.6197,53.26133]}},{"type":"Feature","properties":{"name":"Castlewarden Golf and Country Club","osm_id":"58465979","county":"Kildare","county_id":"IE_KILDARE","jurisdiction":"ROI","pop_2022":247774},"geometry":{"type":"Point","coordinates":[-6.54645,53.26574]}},{"type":"Feature","properties":{"name":"Bodenstown Golf Club","osm_id":"91530751","county":"Kildare","county_id":"IE_KILDARE","jurisdiction":"ROI","pop_2022":247774},"geometry":{"type":"Point","coordinates":[-6.6574,53.2707]}},{"type":"Feature","properties":{"name":"Millicent Golf Club","osm_id":"2072511","county":"Kildare","county_id":"IE_KILDARE","jurisdiction":"ROI","pop_2022":247774},"geometry":{"type":"Point","coordinates":[-6.68417,53.27755]}},{"type":"Feature","properties":{"name":"Prosperous Pitch & Putt Club","osm_id":"88282998","county":"Kildare","county_id":"IE_KILDARE","jurisdiction":"ROI","pop_2022":247774},"geometry":{"type":"Point","coordinates":[-6.75011,53.28899]}},{"type":"Feature","properties":{"name":"The Palmer North Course","osm_id":"98960980","county":"Kildare","county_id":"IE_KILDARE","jurisdiction":"ROI","pop_2022":247774},"geometry":{"type":"Point","coordinates":[-6.6269,53.30676]}},{"type":"Feature","properties":{"name":"Clongowes Wood Golf Course","osm_id":"1994409","county":"Kildare","county_id":"IE_KILDARE","jurisdiction":"ROI","pop_2022":247774},"geometry":{"type":"Point","coordinates":[-6.69378,53.30967]}},{"type":"Feature","properties":{"name":"Newcastle Golf Centre","osm_id":"491490135","county":"South Dublin","county_id":"IE_SOUTH_DUBLIN","jurisdiction":"ROI","pop_2022":301705},"geometry":{"type":"Point","coordinates":[-6.47228,53.32053]}},{"type":"Feature","properties":{"name":"Pitch & Putt Course 1","osm_id":"765557551","county":"Kildare","county_id":"IE_KILDARE","jurisdiction":"ROI","pop_2022":247774},"geometry":{"type":"Point","coordinates":[-6.51309,53.33028]}},{"type":"Feature","properties":{"name":"Celbridge Golf Range","osm_id":"672093328","county":"Kildare","county_id":"IE_KILDARE","jurisdiction":"ROI","pop_2022":247774},"geometry":{"type":"Point","coordinates":[-6.50903,53.33904]}},{"type":"Feature","properties":{"name":"Lucan Golf Club","osm_id":"4477425","county":"South Dublin","county_id":"IE_SOUTH_DUBLIN","jurisdiction":"ROI","pop_2022":301705},"geometry":{"type":"Point","coordinates":[-6.4775,53.35121]}},{"type":"Feature","properties":{"name":"Lucan Golf Club","osm_id":"23527595","county":"South Dublin","county_id":"IE_SOUTH_DUBLIN","jurisdiction":"ROI","pop_2022":301705},"geometry":{"type":"Point","coordinates":[-6.4775,53.35121]}},{"type":"Feature","properties":{"name":"Liffey Valley Par 3","osm_id":"34920405","county":"South Dublin","county_id":"IE_SOUTH_DUBLIN","jurisdiction":"ROI","pop_2022":301705},"geometry":{"type":"Point","coordinates":[-6.47159,53.36113]}},{"type":"Feature","properties":{"name":"GUI Practice Academy","osm_id":"30662924","county":"Kildare","county_id":"IE_KILDARE","jurisdiction":"ROI","pop_2022":247774},"geometry":{"type":"Point","coordinates":[-6.55744,53.39495]}},{"type":"Feature","properties":{"name":"Kilcock Golf Club","osm_id":"263552593","county":"Meath","county_id":"IE_MEATH","jurisdiction":"ROI","pop_2022":220326},"geometry":{"type":"Point","coordinates":[-6.71222,53.43484]}},{"type":"Feature","properties":{"name":"Summerhill Golf Course","osm_id":"361229820","county":"Meath","county_id":"IE_MEATH","jurisdiction":"ROI","pop_2022":220326},"geometry":{"type":"Point","coordinates":[-6.76705,53.46601]}},{"type":"Feature","properties":{"name":"Ratoath Pitch and Putt Club","osm_id":"539111348","county":"Meath","county_id":"IE_MEATH","jurisdiction":"ROI","pop_2022":220326},"geometry":{"type":"Point","coordinates":[-6.46471,53.51175]}},{"type":"Feature","properties":{"name":"Black Bush Golf Club","osm_id":"42733614","county":"Meath","county_id":"IE_MEATH","jurisdiction":"ROI","pop_2022":220326},"geometry":{"type":"Point","coordinates":[-6.52857,53.5286]}},{"type":"Feature","properties":{"name":"Killeen Castle Golf Club","osm_id":"4560506","county":"Meath","county_id":"IE_MEATH","jurisdiction":"ROI","pop_2022":220326},"geometry":{"type":"Point","coordinates":[-6.59132,53.53512]}},{"type":"Feature","properties":{"name":"Knightsbrook Golf Club","osm_id":"4551692","county":"Meath","county_id":"IE_MEATH","jurisdiction":"ROI","pop_2022":220326},"geometry":{"type":"Point","coordinates":[-6.76724,53.54417]}},{"type":"Feature","properties":{"name":"Trim Pitch n Putt","osm_id":"295103864","county":"Meath","county_id":"IE_MEATH","jurisdiction":"ROI","pop_2022":220326},"geometry":{"type":"Point","coordinates":[-6.79817,53.55641]}},{"type":"Feature","properties":{"name":"Royal Tara Golf Club","osm_id":"4580986","county":"Meath","county_id":"IE_MEATH","jurisdiction":"ROI","pop_2022":220326},"geometry":{"type":"Point","coordinates":[-6.64675,53.59303]}},{"type":"Feature","properties":{"name":"Ardee Golf Club","osm_id":"719676507","county":"Louth","county_id":"IE_LOUTH","jurisdiction":"ROI","pop_2022":139703},"geometry":{"type":"Point","coordinates":[-6.55477,53.8608]}},{"type":"Feature","properties":{"name":"Cabra Castle Golf Course","osm_id":"1180194064","county":"Cavan","county_id":"IE_CAVAN","jurisdiction":"ROI","pop_2022":81201},"geometry":{"type":"Point","coordinates":[-6.77838,53.91626]}},{"type":"Feature","properties":{"name":"Nuremore Hotel & Country Club","osm_id":"1225317294","county":"Monaghan","county_id":"IE_MONAGHAN","jurisdiction":"ROI","pop_2022":65288},"geometry":{"type":"Point","coordinates":[-6.69589,53.962]}},{"type":"Feature","properties":{"name":"Inniskeen Pitch and Putt","osm_id":"1458588831","county":"Monaghan","county_id":"IE_MONAGHAN","jurisdiction":"ROI","pop_2022":65288},"geometry":{"type":"Point","coordinates":[-6.57629,54.00284]}},{"type":"Feature","properties":{"name":"Mannan Castle Golf Club","osm_id":"5679011","county":"Monaghan","county_id":"IE_MONAGHAN","jurisdiction":"ROI","pop_2022":65288},"geometry":{"type":"Point","coordinates":[-6.6995,54.00571]}},{"type":"Feature","properties":{"name":"Cloverhill Golf Club","osm_id":"5218731","county":"Newry, Mourne and Down","county_id":"NI_NEWRY_MOURNE_AND_DOWN","jurisdiction":"NI","pop_2022":181909},"geometry":{"type":"Point","coordinates":[-6.48739,54.10369]}},{"type":"Feature","properties":{"name":"Concra Wood Golf Club","osm_id":"721962532","county":"Monaghan","county_id":"IE_MONAGHAN","jurisdiction":"ROI","pop_2022":65288},"geometry":{"type":"Point","coordinates":[-6.70108,54.10891]}},{"type":"Feature","properties":{"name":"Ashfield Golf Course","osm_id":"285599388","county":"Newry, Mourne and Down","county_id":"NI_NEWRY_MOURNE_AND_DOWN","jurisdiction":"NI","pop_2022":181909},"geometry":{"type":"Point","coordinates":[-6.57946,54.11021]}},{"type":"Feature","properties":{"name":"Armagh Golf Club","osm_id":"456756633","county":"Armagh City, Banbridge and Craigavon","county_id":"NI_ARMAGH_CITY_BANBRIDGE_AND_CRAIGAVON","jurisdiction":"NI","pop_2022":218664},"geometry":{"type":"Point","coordinates":[-6.64671,54.33762]}},{"type":"Feature","properties":{"name":"Dungannon Golf Club","osm_id":"508153681","county":"Mid Ulster","county_id":"NI_MID_ULSTER","jurisdiction":"NI","pop_2022":150542},"geometry":{"type":"Point","coordinates":[-6.78582,54.51771]}},{"type":"Feature","properties":{"name":"Killymoon Golf Club","osm_id":"252652594","county":"Mid Ulster","county_id":"NI_MID_ULSTER","jurisdiction":"NI","pop_2022":150542},"geometry":{"type":"Point","coordinates":[-6.72414,54.63423]}},{"type":"Feature","properties":{"name":"Ronan Valley Golf Course","osm_id":"627562357","county":"Mid Ulster","county_id":"NI_MID_ULSTER","jurisdiction":"NI","pop_2022":150542},"geometry":{"type":"Point","coordinates":[-6.59937,54.74375]}},{"type":"Feature","properties":{"name":"Moyola Park","osm_id":"542436987","county":"Mid Ulster","county_id":"NI_MID_ULSTER","jurisdiction":"NI","pop_2022":150542},"geometry":{"type":"Point","coordinates":[-6.56061,54.78286]}},{"type":"Feature","properties":{"name":"Tobermore Golf Centre","osm_id":"145320824","county":"Mid Ulster","county_id":"NI_MID_ULSTER","jurisdiction":"NI","pop_2022":150542},"geometry":{"type":"Point","coordinates":[-6.69616,54.81657]}},{"type":"Feature","properties":{"name":"Kilrea Golf Course","osm_id":"1230344148","county":"Causeway Coast and Glens","county_id":"NI_CAUSEWAY_COAST_AND_GLENS","jurisdiction":"NI","pop_2022":144838},"geometry":{"type":"Point","coordinates":[-6.55494,54.94228]}},{"type":"Feature","properties":{"name":"The Manor House & Golf Course","osm_id":"385423551","county":"Causeway Coast and Glens","county_id":"NI_CAUSEWAY_COAST_AND_GLENS","jurisdiction":"NI","pop_2022":144838},"geometry":{"type":"Point","coordinates":[-6.54648,54.95026]}},{"type":"Feature","properties":{"name":"Brown Trout Inn golf course","osm_id":"969618876","county":"Causeway Coast and Glens","county_id":"NI_CAUSEWAY_COAST_AND_GLENS","jurisdiction":"NI","pop_2022":144838},"geometry":{"type":"Point","coordinates":[-6.59918,55.03811]}},{"type":"Feature","properties":{"name":"Castlerock Golf Club","osm_id":"284407631","county":"Causeway Coast and Glens","county_id":"NI_CAUSEWAY_COAST_AND_GLENS","jurisdiction":"NI","pop_2022":144838},"geometry":{"type":"Point","coordinates":[-6.77378,55.16373]}},{"type":"Feature","properties":{"name":"The Strand - Portstewart Golf Club","osm_id":"298904954","county":"Causeway Coast and Glens","county_id":"NI_CAUSEWAY_COAST_AND_GLENS","jurisdiction":"NI","pop_2022":144838},"geometry":{"type":"Point","coordinates":[-6.72741,55.16651]}},{"type":"Feature","properties":{"name":"The Old Course - Portstewart Golf Club","osm_id":"6598003","county":"Causeway Coast and Glens","county_id":"NI_CAUSEWAY_COAST_AND_GLENS","jurisdiction":"NI","pop_2022":144838},"geometry":{"type":"Point","coordinates":[-6.70343,55.19025]}},{"type":"Feature","properties":{"name":"Ballyreagh Golf Course","osm_id":"833697455","county":"Causeway Coast and Glens","county_id":"NI_CAUSEWAY_COAST_AND_GLENS","jurisdiction":"NI","pop_2022":144838},"geometry":{"type":"Point","coordinates":[-6.68316,55.19621]}},{"type":"Feature","properties":{"name":"Dunluce Links","osm_id":"1413316756","county":"Causeway Coast and Glens","county_id":"NI_CAUSEWAY_COAST_AND_GLENS","jurisdiction":"NI","pop_2022":144838},"geometry":{"type":"Point","coordinates":[-6.62778,55.20302]}},{"type":"Feature","properties":{"name":"Bushfoot Golf Club","osm_id":"508156888","county":"Causeway Coast and Glens","county_id":"NI_CAUSEWAY_COAST_AND_GLENS","jurisdiction":"NI","pop_2022":144838},"geometry":{"type":"Point","coordinates":[-6.53198,55.21712]}},{"type":"Feature","properties":{"name":"St Helen's Bay Golf Club","osm_id":"3989612","county":"Wexford","county_id":"IE_WEXFORD","jurisdiction":"ROI","pop_2022":163919},"geometry":{"type":"Point","coordinates":[-6.33394,52.2337]}},{"type":"Feature","properties":{"name":"Rosslare Golf Club","osm_id":"4622486","county":"Wexford","county_id":"IE_WEXFORD","jurisdiction":"ROI","pop_2022":163919},"geometry":{"type":"Point","coordinates":[-6.3927,52.29391]}},{"type":"Feature","properties":{"name":"Rathaspeck Manor Golf Course","osm_id":"734152623","county":"Wexford","county_id":"IE_WEXFORD","jurisdiction":"ROI","pop_2022":163919},"geometry":{"type":"Point","coordinates":[-6.49726,52.30583]}},{"type":"Feature","properties":{"name":"Wexford Golf Club","osm_id":"3332710","county":"Wexford","county_id":"IE_WEXFORD","jurisdiction":"ROI","pop_2022":163919},"geometry":{"type":"Point","coordinates":[-6.4676,52.32049]}},{"type":"Feature","properties":{"name":"Blackwater Golf Course","osm_id":"3535444","county":"Wexford","county_id":"IE_WEXFORD","jurisdiction":"ROI","pop_2022":163919},"geometry":{"type":"Point","coordinates":[-6.31084,52.48084]}},{"type":"Feature","properties":{"name":"Macreddin Golf Course","osm_id":"135319494","county":"Wicklow","county_id":"IE_WICKLOW","jurisdiction":"ROI","pop_2022":155851},"geometry":{"type":"Point","coordinates":[-6.3317,52.88125]}},{"type":"Feature","properties":{"name":"Lisheens Springs Golf Club","osm_id":"58326020","county":"Wicklow","county_id":"IE_WICKLOW","jurisdiction":"ROI","pop_2022":155851},"geometry":{"type":"Point","coordinates":[-6.44762,53.22803]}},{"type":"Feature","properties":{"name":"Dublin Mountain Golf Club","osm_id":"58467692","county":"South Dublin","county_id":"IE_SOUTH_DUBLIN","jurisdiction":"ROI","pop_2022":301705},"geometry":{"type":"Point","coordinates":[-6.43848,53.23676]}},{"type":"Feature","properties":{"name":"Dublin City Golf Course","osm_id":"550922071","county":"South Dublin","county_id":"IE_SOUTH_DUBLIN","jurisdiction":"ROI","pop_2022":301705},"geometry":{"type":"Point","coordinates":[-6.37682,53.25132]}},{"type":"Feature","properties":{"name":"Glenville Par 3","osm_id":"104019857","county":"South Dublin","county_id":"IE_SOUTH_DUBLIN","jurisdiction":"ROI","pop_2022":301705},"geometry":{"type":"Point","coordinates":[-6.38251,53.263]}},{"type":"Feature","properties":{"name":"Grange Golf Club","osm_id":"23564638","county":"South Dublin","county_id":"IE_SOUTH_DUBLIN","jurisdiction":"ROI","pop_2022":301705},"geometry":{"type":"Point","coordinates":[-6.28226,53.26789]}},{"type":"Feature","properties":{"name":"Glenville Pitch and Putt","osm_id":"37790966","county":"South Dublin","county_id":"IE_SOUTH_DUBLIN","jurisdiction":"ROI","pop_2022":301705},"geometry":{"type":"Point","coordinates":[-6.35974,53.27024]}},{"type":"Feature","properties":{"name":"Hazel Grove Golf Club","osm_id":"58460279","county":"South Dublin","county_id":"IE_SOUTH_DUBLIN","jurisdiction":"ROI","pop_2022":301705},"geometry":{"type":"Point","coordinates":[-6.40466,53.27016]}},{"type":"Feature","properties":{"name":"Citywest Golf Club","osm_id":"14445839","county":"South Dublin","county_id":"IE_SOUTH_DUBLIN","jurisdiction":"ROI","pop_2022":301705},"geometry":{"type":"Point","coordinates":[-6.4418,53.28326]}},{"type":"Feature","properties":{"name":"St Augustine's Pitch and Putt Club","osm_id":"83890192","county":"South Dublin","county_id":"IE_SOUTH_DUBLIN","jurisdiction":"ROI","pop_2022":301705},"geometry":{"type":"Point","coordinates":[-6.29497,53.28096]}},{"type":"Feature","properties":{"name":"Spawell Golf Course","osm_id":"8025484","county":"South Dublin","county_id":"IE_SOUTH_DUBLIN","jurisdiction":"ROI","pop_2022":301705},"geometry":{"type":"Point","coordinates":[-6.32476,53.29486]}},{"type":"Feature","properties":{"name":"Newlands Golf Course","osm_id":"28513446","county":"South Dublin","county_id":"IE_SOUTH_DUBLIN","jurisdiction":"ROI","pop_2022":301705},"geometry":{"type":"Point","coordinates":[-6.39345,53.30859]}},{"type":"Feature","properties":{"name":"Grange Castle Golf Course","osm_id":"4514596","county":"South Dublin","county_id":"IE_SOUTH_DUBLIN","jurisdiction":"ROI","pop_2022":301705},"geometry":{"type":"Point","coordinates":[-6.43344,53.3125]}},{"type":"Feature","properties":{"name":"Lansdowne Valley Pitch & Putt","osm_id":"491381661","county":"Dublin City","county_id":"IE_DUBLIN_CITY","jurisdiction":"ROI","pop_2022":592713},"geometry":{"type":"Point","coordinates":[-6.32972,53.32679]}},{"type":"Feature","properties":{"name":"Lucan Pitch And Putt Club","osm_id":"53287203","county":"South Dublin","county_id":"IE_SOUTH_DUBLIN","jurisdiction":"ROI","pop_2022":301705},"geometry":{"type":"Point","coordinates":[-6.45364,53.33164]}},{"type":"Feature","properties":{"name":"Longmeadows Pitch and Putt","osm_id":"263344553","county":"Dublin City","county_id":"IE_DUBLIN_CITY","jurisdiction":"ROI","pop_2022":592713},"geometry":{"type":"Point","coordinates":[-6.33394,53.34401]}},{"type":"Feature","properties":{"name":"Luttrellstown Golf Course","osm_id":"38690403","county":"Fingal","county_id":"IE_FINGAL","jurisdiction":"ROI","pop_2022":330506},"geometry":{"type":"Point","coordinates":[-6.4186,53.37052]}},{"type":"Feature","properties":{"name":"Shandon Pitch and Putt","osm_id":"40852749","county":"Dublin City","county_id":"IE_DUBLIN_CITY","jurisdiction":"ROI","pop_2022":592713},"geometry":{"type":"Point","coordinates":[-6.27866,53.36464]}},{"type":"Feature","properties":{"name":"Tolka Valley Pitch and Putt course","osm_id":"854976490","county":"Dublin City","county_id":"IE_DUBLIN_CITY","jurisdiction":"ROI","pop_2022":592713},"geometry":{"type":"Point","coordinates":[-6.2954,53.37647]}},{"type":"Feature","properties":{"name":"Elmgreen Golf Club","osm_id":"24497537","county":"Fingal","county_id":"IE_FINGAL","jurisdiction":"ROI","pop_2022":330506},"geometry":{"type":"Point","coordinates":[-6.34826,53.38541]}},{"type":"Feature","properties":{"name":"Silloge Park Public Golf Course","osm_id":"23388433","county":"Fingal","county_id":"IE_FINGAL","jurisdiction":"ROI","pop_2022":330506},"geometry":{"type":"Point","coordinates":[-6.27251,53.41213]}},{"type":"Feature","properties":{"name":"Hollystown Golf Club","osm_id":"22948942","county":"Fingal","county_id":"IE_FINGAL","jurisdiction":"ROI","pop_2022":330506},"geometry":{"type":"Point","coordinates":[-6.38241,53.43084]}},{"type":"Feature","properties":{"name":"Saint Margarets Golf and Country Club","osm_id":"4202452","county":"Fingal","county_id":"IE_FINGAL","jurisdiction":"ROI","pop_2022":330506},"geometry":{"type":"Point","coordinates":[-6.30116,53.45137]}},{"type":"Feature","properties":{"name":"Corrstown Golf Course","osm_id":"4199613","county":"Fingal","county_id":"IE_FINGAL","jurisdiction":"ROI","pop_2022":330506},"geometry":{"type":"Point","coordinates":[-6.32483,53.45956]}},{"type":"Feature","properties":{"name":"Ashbourne Golf Club","osm_id":"221327757","county":"Meath","county_id":"IE_MEATH","jurisdiction":"ROI","pop_2022":220326},"geometry":{"type":"Point","coordinates":[-6.37704,53.50338]}},{"type":"Feature","properties":{"name":"Bellewstown Golf Course","osm_id":"286271592","county":"Meath","county_id":"IE_MEATH","jurisdiction":"ROI","pop_2022":220326},"geometry":{"type":"Point","coordinates":[-6.33402,53.65078]}},{"type":"Feature","properties":{"name":"Julianstown Golf and Pitch & Putt Course","osm_id":"589190461","county":"Meath","county_id":"IE_MEATH","jurisdiction":"ROI","pop_2022":220326},"geometry":{"type":"Point","coordinates":[-6.28527,53.66787]}},{"type":"Feature","properties":{"name":"Kilineer Pitch & Putt","osm_id":"802713312","county":"Louth","county_id":"IE_LOUTH","jurisdiction":"ROI","pop_2022":139703},"geometry":{"type":"Point","coordinates":[-6.36981,53.72231]}},{"type":"Feature","properties":{"name":"Townley Hall Golf Club","osm_id":"267770347","county":"Louth","county_id":"IE_LOUTH","jurisdiction":"ROI","pop_2022":139703},"geometry":{"type":"Point","coordinates":[-6.4232,53.72855]}},{"type":"Feature","properties":{"name":"Dundalk Golf Club","osm_id":"145359524","county":"Louth","county_id":"IE_LOUTH","jurisdiction":"ROI","pop_2022":139703},"geometry":{"type":"Point","coordinates":[-6.377,53.97356]}},{"type":"Feature","properties":{"name":"Dundalk Pitch & Putt Club","osm_id":"341459885","county":"Louth","county_id":"IE_LOUTH","jurisdiction":"ROI","pop_2022":139703},"geometry":{"type":"Point","coordinates":[-6.39055,53.98845]}},{"type":"Feature","properties":{"name":"St. Brigid's Community Centre Pitch & Putt","osm_id":"295640816","county":"Louth","county_id":"IE_LOUTH","jurisdiction":"ROI","pop_2022":139703},"geometry":{"type":"Point","coordinates":[-6.37045,54.00686]}},{"type":"Feature","properties":{"name":"Warrenpoint Golf Club","osm_id":"59517707","county":"Newry, Mourne and Down","county_id":"NI_NEWRY_MOURNE_AND_DOWN","jurisdiction":"NI","pop_2022":181909},"geometry":{"type":"Point","coordinates":[-6.2678,54.10822]}},{"type":"Feature","properties":{"name":"Cloghogue Pitch and Putt","osm_id":"1023814456","county":"Newry, Mourne and Down","county_id":"NI_NEWRY_MOURNE_AND_DOWN","jurisdiction":"NI","pop_2022":181909},"geometry":{"type":"Point","coordinates":[-6.34281,54.15333]}},{"type":"Feature","properties":{"name":"Mayobridge Golf Club","osm_id":"1065198129","county":"Newry, Mourne and Down","county_id":"NI_NEWRY_MOURNE_AND_DOWN","jurisdiction":"NI","pop_2022":181909},"geometry":{"type":"Point","coordinates":[-6.24496,54.19313]}},{"type":"Feature","properties":{"name":"Tandragee Golf Course","osm_id":"65203553","county":"Armagh City, Banbridge and Craigavon","county_id":"NI_ARMAGH_CITY_BANBRIDGE_AND_CRAIGAVON","jurisdiction":"NI","pop_2022":218664},"geometry":{"type":"Point","coordinates":[-6.42074,54.34838]}},{"type":"Feature","properties":{"name":"Banbridge Golf Club","osm_id":"13052228","county":"Armagh City, Banbridge and Craigavon","county_id":"NI_ARMAGH_CITY_BANBRIDGE_AND_CRAIGAVON","jurisdiction":"NI","pop_2022":218664},"geometry":{"type":"Point","coordinates":[-6.28683,54.36139]}},{"type":"Feature","properties":{"name":"Portadown Golf Club","osm_id":"409244100","county":"Armagh City, Banbridge and Craigavon","county_id":"NI_ARMAGH_CITY_BANBRIDGE_AND_CRAIGAVON","jurisdiction":"NI","pop_2022":218664},"geometry":{"type":"Point","coordinates":[-6.41371,54.40413]}},{"type":"Feature","properties":{"name":"Edenmore Golf Course","osm_id":"598975449","county":"Armagh City, Banbridge and Craigavon","county_id":"NI_ARMAGH_CITY_BANBRIDGE_AND_CRAIGAVON","jurisdiction":"NI","pop_2022":218664},"geometry":{"type":"Point","coordinates":[-6.23363,54.45261]}},{"type":"Feature","properties":{"name":"Lurgan Golf Course","osm_id":"231714532","county":"Armagh City, Banbridge and Craigavon","county_id":"NI_ARMAGH_CITY_BANBRIDGE_AND_CRAIGAVON","jurisdiction":"NI","pop_2022":218664},"geometry":{"type":"Point","coordinates":[-6.31726,54.46742]}},{"type":"Feature","properties":{"name":"Craigavon Golf Course","osm_id":"162602247","county":"Armagh City, Banbridge and Craigavon","county_id":"NI_ARMAGH_CITY_BANBRIDGE_AND_CRAIGAVON","jurisdiction":"NI","pop_2022":218664},"geometry":{"type":"Point","coordinates":[-6.36251,54.475]}},{"type":"Feature","properties":{"name":"Massereene Golf Club","osm_id":"198386249","county":"Antrim and Newtownabbey","county_id":"NI_ANTRIM_AND_NEWTOWNABBEY","jurisdiction":"NI","pop_2022":142492},"geometry":{"type":"Point","coordinates":[-6.23087,54.71294]}},{"type":"Feature","properties":{"name":"Galgorm Castle Golf Club","osm_id":"1062734778","county":"Mid and East Antrim","county_id":"NI_MID_AND_EAST_ANTRIM","jurisdiction":"NI","pop_2022":138762},"geometry":{"type":"Point","coordinates":[-6.31295,54.85211]}},{"type":"Feature","properties":{"name":"Ballymena Golf Course","osm_id":"195646009","county":"Mid and East Antrim","county_id":"NI_MID_AND_EAST_ANTRIM","jurisdiction":"NI","pop_2022":138762},"geometry":{"type":"Point","coordinates":[-6.22318,54.88438]}},{"type":"Feature","properties":{"name":"Gracehill Golf Club","osm_id":"298477465","county":"Causeway Coast and Glens","county_id":"NI_CAUSEWAY_COAST_AND_GLENS","jurisdiction":"NI","pop_2022":144838},"geometry":{"type":"Point","coordinates":[-6.3932,55.14123]}},{"type":"Feature","properties":{"name":"Morriscastle Village Pitch & Putt","osm_id":"112354013","county":"Wexford","county_id":"IE_WEXFORD","jurisdiction":"ROI","pop_2022":163919},"geometry":{"type":"Point","coordinates":[-6.25761,52.51487]}},{"type":"Feature","properties":{"name":"Fairway Football","osm_id":"2363603","county":"Wexford","county_id":"IE_WEXFORD","jurisdiction":"ROI","pop_2022":163919},"geometry":{"type":"Point","coordinates":[-6.24635,52.63543]}},{"type":"Feature","properties":{"name":"Courtown Golf Course","osm_id":"28514092","county":"Wexford","county_id":"IE_WEXFORD","jurisdiction":"ROI","pop_2022":163919},"geometry":{"type":"Point","coordinates":[-6.22596,52.65792]}},{"type":"Feature","properties":{"name":"Tara Glen Golf and Country Club","osm_id":"28727876","county":"Wexford","county_id":"IE_WEXFORD","jurisdiction":"ROI","pop_2022":163919},"geometry":{"type":"Point","coordinates":[-6.2188,52.66546]}},{"type":"Feature","properties":{"name":"Ballymoney Golf Course","osm_id":"28517535","county":"Wexford","county_id":"IE_WEXFORD","jurisdiction":"ROI","pop_2022":163919},"geometry":{"type":"Point","coordinates":[-6.23649,52.67611]}},{"type":"Feature","properties":{"name":"Seafield Golf Course","osm_id":"28561660","county":"Wexford","county_id":"IE_WEXFORD","jurisdiction":"ROI","pop_2022":163919},"geometry":{"type":"Point","coordinates":[-6.21331,52.67599]}},{"type":"Feature","properties":{"name":"Arklow Golf Course","osm_id":"29005090","county":"Wicklow","county_id":"IE_WICKLOW","jurisdiction":"ROI","pop_2022":155851},"geometry":{"type":"Point","coordinates":[-6.14777,52.78692]}},{"type":"Feature","properties":{"name":"Woodenbridge Golf Course","osm_id":"33376894","county":"Wicklow","county_id":"IE_WICKLOW","jurisdiction":"ROI","pop_2022":155851},"geometry":{"type":"Point","coordinates":[-6.22575,52.83147]}},{"type":"Feature","properties":{"name":"Glenmalure Golf Club","osm_id":"147857967","county":"Wicklow","county_id":"IE_WICKLOW","jurisdiction":"ROI","pop_2022":155851},"geometry":{"type":"Point","coordinates":[-6.29144,52.93464]}},{"type":"Feature","properties":{"name":"Roundwood Golf Club","osm_id":"42946158","county":"Wicklow","county_id":"IE_WICKLOW","jurisdiction":"ROI","pop_2022":155851},"geometry":{"type":"Point","coordinates":[-6.15882,53.0836]}},{"type":"Feature","properties":{"name":"Powerscourt Golf Club","osm_id":"35290051","county":"Wicklow","county_id":"IE_WICKLOW","jurisdiction":"ROI","pop_2022":155851},"geometry":{"type":"Point","coordinates":[-6.19092,53.18786]}},{"type":"Feature","properties":{"name":"Dun Laoghaire Golf Club","osm_id":"34698955","county":"Dun Laoghaire-Rathdown","county_id":"IE_DUN_LAOGHAIRE_RATHDOWN","jurisdiction":"ROI","pop_2022":233860},"geometry":{"type":"Point","coordinates":[-6.16208,53.21022]}},{"type":"Feature","properties":{"name":"Old Conna Golf Course","osm_id":"34698550","county":"Dun Laoghaire-Rathdown","county_id":"IE_DUN_LAOGHAIRE_RATHDOWN","jurisdiction":"ROI","pop_2022":233860},"geometry":{"type":"Point","coordinates":[-6.13984,53.21446]}},{"type":"Feature","properties":{"name":"Glencullen Pitch and Putt","osm_id":"365059963","county":"Dun Laoghaire-Rathdown","county_id":"IE_DUN_LAOGHAIRE_RATHDOWN","jurisdiction":"ROI","pop_2022":233860},"geometry":{"type":"Point","coordinates":[-6.223,53.22715]}},{"type":"Feature","properties":{"name":"Loughlinstown Pitch and Putt","osm_id":"53348925","county":"Dun Laoghaire-Rathdown","county_id":"IE_DUN_LAOGHAIRE_RATHDOWN","jurisdiction":"ROI","pop_2022":233860},"geometry":{"type":"Point","coordinates":[-6.12946,53.24334]}},{"type":"Feature","properties":{"name":"Carrickmines Golf Course","osm_id":"28921961","county":"Dun Laoghaire-Rathdown","county_id":"IE_DUN_LAOGHAIRE_RATHDOWN","jurisdiction":"ROI","pop_2022":233860},"geometry":{"type":"Point","coordinates":[-6.16933,53.24415]}},{"type":"Feature","properties":{"name":"Stepaside Golf Course","osm_id":"34724760","county":"Dun Laoghaire-Rathdown","county_id":"IE_DUN_LAOGHAIRE_RATHDOWN","jurisdiction":"ROI","pop_2022":233860},"geometry":{"type":"Point","coordinates":[-6.204,53.24826]}},{"type":"Feature","properties":{"name":"Burrow Golf Course","osm_id":"35766293","county":"Dun Laoghaire-Rathdown","county_id":"IE_DUN_LAOGHAIRE_RATHDOWN","jurisdiction":"ROI","pop_2022":233860},"geometry":{"type":"Point","coordinates":[-6.21797,53.25391]}},{"type":"Feature","properties":{"name":"Sandyford Pitch and Putt","osm_id":"55239766","county":"Dun Laoghaire-Rathdown","county_id":"IE_DUN_LAOGHAIRE_RATHDOWN","jurisdiction":"ROI","pop_2022":233860},"geometry":{"type":"Point","coordinates":[-6.22935,53.2625]}},{"type":"Feature","properties":{"name":"Killiney Golf Club","osm_id":"23312656","county":"Dun Laoghaire-Rathdown","county_id":"IE_DUN_LAOGHAIRE_RATHDOWN","jurisdiction":"ROI","pop_2022":233860},"geometry":{"type":"Point","coordinates":[-6.12708,53.26431]}},{"type":"Feature","properties":{"name":"Leopardstown Golf Centre","osm_id":"26472787","county":"Dun Laoghaire-Rathdown","county_id":"IE_DUN_LAOGHAIRE_RATHDOWN","jurisdiction":"ROI","pop_2022":233860},"geometry":{"type":"Point","coordinates":[-6.18905,53.26596]}},{"type":"Feature","properties":{"name":"Marlay Park Golf Course","osm_id":"8048812","county":"Dun Laoghaire-Rathdown","county_id":"IE_DUN_LAOGHAIRE_RATHDOWN","jurisdiction":"ROI","pop_2022":233860},"geometry":{"type":"Point","coordinates":[-6.26981,53.27025]}},{"type":"Feature","properties":{"name":"Foxrock Golf Course","osm_id":"28889105","county":"Dun Laoghaire-Rathdown","county_id":"IE_DUN_LAOGHAIRE_RATHDOWN","jurisdiction":"ROI","pop_2022":233860},"geometry":{"type":"Point","coordinates":[-6.18184,53.27257]}},{"type":"Feature","properties":{"name":"St. John of God Hospital golf course","osm_id":"49947431","county":"Dun Laoghaire-Rathdown","county_id":"IE_DUN_LAOGHAIRE_RATHDOWN","jurisdiction":"ROI","pop_2022":233860},"geometry":{"type":"Point","coordinates":[-6.18959,53.28669]}},{"type":"Feature","properties":{"name":"Mount Merrion Pitch and Putt Club","osm_id":"46877007","county":"Dun Laoghaire-Rathdown","county_id":"IE_DUN_LAOGHAIRE_RATHDOWN","jurisdiction":"ROI","pop_2022":233860},"geometry":{"type":"Point","coordinates":[-6.19918,53.29524]}},{"type":"Feature","properties":{"name":"Castle Golf Club","osm_id":"2643863","county":"Dun Laoghaire-Rathdown","county_id":"IE_DUN_LAOGHAIRE_RATHDOWN","jurisdiction":"ROI","pop_2022":233860},"geometry":{"type":"Point","coordinates":[-6.27494,53.29704]}},{"type":"Feature","properties":{"name":"Milltown Golf Club","osm_id":"2220520","county":"Dun Laoghaire-Rathdown","county_id":"IE_DUN_LAOGHAIRE_RATHDOWN","jurisdiction":"ROI","pop_2022":233860},"geometry":{"type":"Point","coordinates":[-6.25596,53.3031]}},{"type":"Feature","properties":{"name":"Elm Park Golf and Sports Club","osm_id":"23017412","county":"Dublin City","county_id":"IE_DUBLIN_CITY","jurisdiction":"ROI","pop_2022":592713},"geometry":{"type":"Point","coordinates":[-6.21426,53.31352]}},{"type":"Feature","properties":{"name":"Royal Dublin Golf Club","osm_id":"27539721","county":"Dublin City","county_id":"IE_DUBLIN_CITY","jurisdiction":"ROI","pop_2022":592713},"geometry":{"type":"Point","coordinates":[-6.15394,53.36766]}},{"type":"Feature","properties":{"name":"Clontarf Golf & Bowling Club","osm_id":"4282945","county":"Dublin City","county_id":"IE_DUBLIN_CITY","jurisdiction":"ROI","pop_2022":592713},"geometry":{"type":"Point","coordinates":[-6.21674,53.37112]}},{"type":"Feature","properties":{"name":"St Anne's Park Pitch and Putt","osm_id":"3580190","county":"Dublin City","county_id":"IE_DUBLIN_CITY","jurisdiction":"ROI","pop_2022":592713},"geometry":{"type":"Point","coordinates":[-6.17907,53.37306]}},{"type":"Feature","properties":{"name":"Portmarnock Golf Club","osm_id":"28277942","county":"Fingal","county_id":"IE_FINGAL","jurisdiction":"ROI","pop_2022":330506},"geometry":{"type":"Point","coordinates":[-6.12249,53.41371]}},{"type":"Feature","properties":{"name":"Pitch and Putt","osm_id":"51274863","county":"Fingal","county_id":"IE_FINGAL","jurisdiction":"ROI","pop_2022":330506},"geometry":{"type":"Point","coordinates":[-6.22877,53.41957]}},{"type":"Feature","properties":{"name":"The Kinsealy Grange","osm_id":"68233576","county":"Fingal","county_id":"IE_FINGAL","jurisdiction":"ROI","pop_2022":330506},"geometry":{"type":"Point","coordinates":[-6.16171,53.42141]}},{"type":"Feature","properties":{"name":"Malahide Golf Club","osm_id":"25529736","county":"Fingal","county_id":"IE_FINGAL","jurisdiction":"ROI","pop_2022":330506},"geometry":{"type":"Point","coordinates":[-6.14523,53.42794]}},{"type":"Feature","properties":{"name":"Fingal Golf Centre","osm_id":"49519840","county":"Fingal","county_id":"IE_FINGAL","jurisdiction":"ROI","pop_2022":330506},"geometry":{"type":"Point","coordinates":[-6.22706,53.43003]}},{"type":"Feature","properties":{"name":"Forrest Little Golf Club","osm_id":"23511273","county":"Fingal","county_id":"IE_FINGAL","jurisdiction":"ROI","pop_2022":330506},"geometry":{"type":"Point","coordinates":[-6.24333,53.44018]}},{"type":"Feature","properties":{"name":"Pitch and Putt","osm_id":"23389922","county":"Fingal","county_id":"IE_FINGAL","jurisdiction":"ROI","pop_2022":330506},"geometry":{"type":"Point","coordinates":[-6.16279,53.44737]}},{"type":"Feature","properties":{"name":"Balcarrick Golf Club","osm_id":"51097008","county":"Fingal","county_id":"IE_FINGAL","jurisdiction":"ROI","pop_2022":330506},"geometry":{"type":"Point","coordinates":[-6.13082,53.47186]}},{"type":"Feature","properties":{"name":"Balheary Par 3","osm_id":"23388304","county":"Fingal","county_id":"IE_FINGAL","jurisdiction":"ROI","pop_2022":330506},"geometry":{"type":"Point","coordinates":[-6.22157,53.48037]}},{"type":"Feature","properties":{"name":"Roganstown Golf and Country Club","osm_id":"4447470","county":"Fingal","county_id":"IE_FINGAL","jurisdiction":"ROI","pop_2022":330506},"geometry":{"type":"Point","coordinates":[-6.2671,53.48541]}},{"type":"Feature","properties":{"name":"Beaverstown Golf Club","osm_id":"23403847","county":"Fingal","county_id":"IE_FINGAL","jurisdiction":"ROI","pop_2022":330506},"geometry":{"type":"Point","coordinates":[-6.15435,53.49573]}},{"type":"Feature","properties":{"name":"Rush Golf Club","osm_id":"23778034","county":"Fingal","county_id":"IE_FINGAL","jurisdiction":"ROI","pop_2022":330506},"geometry":{"type":"Point","coordinates":[-6.10643,53.51321]}},{"type":"Feature","properties":{"name":"Ballyboughal Pitch & Putt","osm_id":"367456626","county":"Fingal","county_id":"IE_FINGAL","jurisdiction":"ROI","pop_2022":330506},"geometry":{"type":"Point","coordinates":[-6.26854,53.52186]}},{"type":"Feature","properties":{"name":"Hollywood Lakes Golf Club","osm_id":"23414309","county":"Fingal","county_id":"IE_FINGAL","jurisdiction":"ROI","pop_2022":330506},"geometry":{"type":"Point","coordinates":[-6.26359,53.54961]}},{"type":"Feature","properties":{"name":"Skerries Golf Club","osm_id":"23511474","county":"Fingal","county_id":"IE_FINGAL","jurisdiction":"ROI","pop_2022":330506},"geometry":{"type":"Point","coordinates":[-6.11692,53.5589]}},{"type":"Feature","properties":{"name":"Ring Commons Pitch and Putt","osm_id":"510492997","county":"Fingal","county_id":"IE_FINGAL","jurisdiction":"ROI","pop_2022":330506},"geometry":{"type":"Point","coordinates":[-6.21642,53.57709]}},{"type":"Feature","properties":{"name":"Balbriggan Golf Club","osm_id":"23591358","county":"Fingal","county_id":"IE_FINGAL","jurisdiction":"ROI","pop_2022":330506},"geometry":{"type":"Point","coordinates":[-6.17825,53.59144]}},{"type":"Feature","properties":{"name":"Laytown Pitch & Putt","osm_id":"1123962359","county":"Meath","county_id":"IE_MEATH","jurisdiction":"ROI","pop_2022":220326},"geometry":{"type":"Point","coordinates":[-6.23532,53.67235]}},{"type":"Feature","properties":{"name":"Laytown & Bettystown Links Golf Club","osm_id":"713048827","county":"Meath","county_id":"IE_MEATH","jurisdiction":"ROI","pop_2022":220326},"geometry":{"type":"Point","coordinates":[-6.24778,53.71094]}},{"type":"Feature","properties":{"name":"Baltray Golf Club","osm_id":"4856415","county":"Louth","county_id":"IE_LOUTH","jurisdiction":"ROI","pop_2022":139703},"geometry":{"type":"Point","coordinates":[-6.25646,53.74454]}},{"type":"Feature","properties":{"name":"Lisburn Golf Course","osm_id":"4561807","county":"Lisburn and Castlereagh","county_id":"NI_LISBURN_AND_CASTLEREAGH","jurisdiction":"NI","pop_2022":149107},"geometry":{"type":"Point","coordinates":[-6.07323,54.48592]}},{"type":"Feature","properties":{"name":"Down Royal Golf Club","osm_id":"38809696","county":"Lisburn and Castlereagh","county_id":"NI_LISBURN_AND_CASTLEREAGH","jurisdiction":"NI","pop_2022":149107},"geometry":{"type":"Point","coordinates":[-6.128,54.49202]}},{"type":"Feature","properties":{"name":"Greenmount Golf Club","osm_id":"238184046","county":"Antrim and Newtownabbey","county_id":"NI_ANTRIM_AND_NEWTOWNABBEY","jurisdiction":"NI","pop_2022":142492},"geometry":{"type":"Point","coordinates":[-6.21802,54.69835]}},{"type":"Feature","properties":{"name":"Hilton Templepatrick Golf Course","osm_id":"133434501","county":"Antrim and Newtownabbey","county_id":"NI_ANTRIM_AND_NEWTOWNABBEY","jurisdiction":"NI","pop_2022":142492},"geometry":{"type":"Point","coordinates":[-6.10182,54.70703]}},{"type":"Feature","properties":{"name":"European Club Golf Course","osm_id":"33724646","county":"Wicklow","county_id":"IE_WICKLOW","jurisdiction":"ROI","pop_2022":155851},"geometry":{"type":"Point","coordinates":[-6.07042,52.85639]}},{"type":"Feature","properties":{"name":"Potters Point Golf Club","osm_id":"147165085","county":"Wicklow","county_id":"IE_WICKLOW","jurisdiction":"ROI","pop_2022":155851},"geometry":{"type":"Point","coordinates":[-6.04371,52.90477]}},{"type":"Feature","properties":{"name":"Blainroe Golf Course","osm_id":"29005192","county":"Wicklow","county_id":"IE_WICKLOW","jurisdiction":"ROI","pop_2022":155851},"geometry":{"type":"Point","coordinates":[-6.02041,52.94681]}},{"type":"Feature","properties":{"name":"Wicklow Golf Course","osm_id":"40787893","county":"Wicklow","county_id":"IE_WICKLOW","jurisdiction":"ROI","pop_2022":155851},"geometry":{"type":"Point","coordinates":[-6.0213,52.97379]}},{"type":"Feature","properties":{"name":"Glen Mill Golf Club","osm_id":"114127823","county":"Wicklow","county_id":"IE_WICKLOW","jurisdiction":"ROI","pop_2022":155851},"geometry":{"type":"Point","coordinates":[-6.08676,53.06948]}},